latitude,longitude,n,Latitude,Longitude,"Accuracy Score","Accuracy Type",Number,Street,"Unit Type","Unit Number",City,State,County,Zip,Country,Source
29.4278,-98.4875,1,29.427823,-98.487349,1,rooftop,214,"Broadway St",,,"San Antonio",TX,"Bexar County",78205,US,"Statewide TX"
44.4759,-73.2121,2,44.476117,-73.212206,1,rooftop,156,"Church St",,,Burlington,VT,"Chittenden County",05401,US,"Statewide VT"
43.0748,-89.384,3,43.074706,-89.384172,1,rooftop,2,"Martin Luther King Jr Blvd",,,Madison,WI,"Dane County",53703,US,"Statewide WI"
32.0835,-81.0998,4,32.08361,-81.099709,1,rooftop,9,"N Fahm St",,,Savannah,GA,"Chatham County",31401,US,Chatham
38.2454,-81.5671,5,38.245305,-81.567257,1,rooftop,9411,"Maccorkle Ave SE",,,Charleston,WV,"Kanawha County",25315,US,"Statewide WV"
38.8342,-104.8214,6,38.834169,-104.8211,1,rooftop,202,"E Pikes Peak Ave",,,"Colorado Springs",CO,"El Paso County",80903,US,"Statewide CO"
40.0428,-86.1275,7,40.04287,-86.127527,1,rooftop,100,"N Union St",,,Westfield,IN,"Hamilton County",46074,US,Hamilton
45.6333,-122.6,8,45.634029,-122.60114,0.98,rooftop,1700,"NE Andresen Rd",,,Vancouver,WA,"Clark County",98661,US,Clark
48.1181,-123.4307,9,48.118007,-123.430192,0.99,rooftop,229,"E 1st St",,,"Port Angeles",WA,"Clallam County",98362,US,Clallam
32.4609,-84.9877,10,32.460753,-84.987974,1,rooftop,745,"Veterans Pkwy",,,Columbus,GA,"Muscogee County",31901,US,Muscogee
40.7775,-111.8882,11,40.777218,-111.888202,1,rooftop,350,"N State St",,,"Salt Lake City",UT,"Salt Lake County",84114,US,"Utah AGRC (and individual UT counties)"
40.8451,-73.8649,12,40.845082,-73.864944,1,rooftop,1740,"Hunt Ave",,,Bronx,NY,"Bronx County",10462,US,"City of New York"
34.257,-85.1647,13,34.256963,-85.164801,1,nearest_street,,"US 27",,,Rome,GA,"Floyd County",30161,US,"TIGER/Line® dataset from the US Census Bureau"
30.2241,-92.0198,14,30.224247,-92.019922,1,rooftop,200,"W Vermilion St",,,Lafayette,LA,"Lafayette Parish",70501,US,Lafayette
35.0844,-106.6511,15,35.084188,-106.651201,1,rooftop,316,"Central Ave SW",,,Albuquerque,NM,"Bernalillo County",87102,US,Bernalillo
44.3106,-69.7794,16,44.310175,-69.779998,0.99,rooftop,45,"Memorial Cir",,,Augusta,ME,"Kennebec County",04330,US,"Maine Office of GIS"
39.7137,-82.5993,17,39.713828,-82.59911,1,rooftop,108,"N High St",,,Lancaster,OH,"Fairfield County",43130,US,Fairfield
41.6608,-91.5304,18,41.660818,-91.530348,1,rooftop,11,"S Gilbert St",,,"Iowa City",IA,"Johnson County",52240,US,Johnson
34.5034,-82.6501,19,34.503252,-82.650123,1,rooftop,113,"S Main St",,,Anderson,SC,"Anderson County",29624,US,Anderson
38.627,-90.1913,20,38.627024,-90.191211,1,rooftop,101,"N 6th St",,,"Saint Louis",MO,"St. Louis City",63101,US,"City of St Louis"
42.6389,-83.2911,21,42.638636,-83.291513,0.99,rooftop,16,"E Huron St",,,Pontiac,MI,"Oakland County",48342,US,Oakland
47.6776,-116.7804,22,47.677787,-116.780404,1,rooftop,411,"E Garden Ave",,,"Coeur D Alene",ID,"Kootenai County",83814,US,Kootenai
28.0836,-80.6081,23,28.083707,-80.607763,0.99,rooftop,1511,"Waverly Pl",,,Melbourne,FL,"Brevard County",32901,US,Brevard
37.9748,-87.5559,24,37.975194,-87.556163,0.99,rooftop,601,"E Sycamore St",,,Evansville,IN,"Vanderburgh County",47713,US,"City of Evansville"
42.3265,-122.8756,25,42.326488,-122.875547,1,rooftop,111,"N Fir St",,,Medford,OR,"Jackson County",97501,US,Jackson
36.154,-95.9928,26,36.154479,-95.993192,0.99,rooftop,136,"S Boulder Ave W",,,Tulsa,OK,"Tulsa County",74103,US,Tulsa
48.0796,-123.1023,27,48.079401,-123.10204,1,rooftop,144,"S Sequim Ave",,,Sequim,WA,"Clallam County",98382,US,Clallam
40.4406,-79.9958,28,40.440724,-79.996301,0.99,rooftop,559,"Grant St",,,Pittsburgh,PA,"Allegheny County",15219,US,Allegheny
42.6801,-83.1339,29,42.680058,-83.134087,1,rooftop,321,"S Main St",,,Rochester,MI,"Oakland County",48307,US,Semcog
33.4017,-86.9544,30,33.401877,-86.95455,1,rooftop,1800,"3rd Ave N",,,Bessemer,AL,"Jefferson County",35020,US,Jefferson
41.7,-73.93,31,41.699689,-73.930189,0.99,rooftop,54,"Montgomery St",,,Poughkeepsie,NY,"Dutchess County",12601,US,"NYS GIS Program Office, State Geographic Information Officer (GIO)"
34.5008,-117.1859,32,34.500617,-117.185993,1,nearest_street,,"CA 18",,,"Apple Valley",CA,"San Bernardino County",92308,US,"TIGER/Line® dataset from the US Census Bureau"
35.601,-82.554,33,35.600926,-82.553913,1,rooftop,44,"Merrimon Ave",,,Asheville,NC,"Buncombe County",28801,US,Buncombe
42.216,-79.8344,34,42.21589,-79.83435,1,rooftop,1,"E Main St",,,"North East",PA,"Erie County",16428,US,Erie
44.9385,-123.0305,35,44.938453,-123.030382,1,rooftop,900,"Court St NE",,,Salem,OR,"Marion County",97301,US,"City of Salem"
37.7793,-122.4193,36,37.779214,-122.419669,0.99,rooftop,400,"Van Ness Ave",,,"San Francisco",CA,"San Francisco County",94103,US,"San Francisco"
34.5811,-118.1248,37,34.581139,-118.124594,1,rooftop,305,"E Ave Q7",,,Palmdale,CA,"Los Angeles County",93550,US,"Los Angeles"
32.8321,-117.2749,38,32.832011,-117.274855,1,rooftop,625,"Bonair Way",,,"LA Jolla",CA,"San Diego County",92037,US,Sandoval
47.0357,-122.9048,39,47.035818,-122.904833,1,rooftop,416,"Sid Snyder Ave SW",,,Olympia,WA,"Thurston County",98501,US,Thurston
38.9187,-77.2311,40,38.918639,-77.231153,1,nearest_street,,"VA 7",,,Vienna,VA,"Fairfax County",22182,US,"TIGER/Line® dataset from the US Census Bureau"
39.7444,-75.5516,41,39.744552,-75.551536,1,rooftop,301,"W 8th St",,,Wilmington,DE,"New Castle County",19801,US,"New Castle"
42.3351,-83.0476,42,42.335204,-83.047664,1,rooftop,1401,"Broadway St",,,Detroit,MI,"Wayne County",48226,US,Semcog
30.8333,-83.2803,43,30.83335,-83.279798,0.99,rooftop,305,"N Patterson St",,,Valdosta,GA,"Lowndes County",31601,US,Lowndes
43.6156,-84.2472,44,43.615921,-84.247131,0.99,rooftop,201,"Jerome St",,,Midland,MI,"Midland County",48640,US,Midland
26.3114,-98.1632,45,26.311457,-98.164145,0.99,rooftop,403,"Pirul St",,,Edinburg,TX,"Hidalgo County",78541,US,"Hidalgo County"
30.2747,-97.7405,46,30.275927,-97.740687,0.98,rooftop,1300,"Congress Ave",,,Austin,TX,"Travis County",78704,US,Capcog
39.5539,-104.9694,47,39.553716,-104.968869,0.99,rooftop,8928,"Wild Iris Run",,,Littleton,CO,"Douglas County",80126,US,Douglas
43.6574,-70.2589,48,43.657311,-70.258768,1,rooftop,15,"Monument Sq",,,Portland,ME,"Cumberland County",04101,US,"Maine Office of GIS"
40.5067,-111.4122,49,40.506455,-111.412062,1,rooftop,61,"E 100 S",,,"Heber City",UT,"Wasatch County",84032,US,"Utah AGRC (and individual UT counties)"
43.7094,-98.0298,50,43.709487,-98.029967,1,rooftop,420,"W 1st Ave",,,Mitchell,SD,"Davison County",57301,US,"Statewide SD"
35.9604,-83.9216,51,35.959806,-83.92183,0.96,nearest_street,804,"US Hwy 11",,,Knoxville,TN,"Knox County",37902,US,"TIGER/Line® dataset from the US Census Bureau"
39.1271,-84.5144,52,39.127122,-84.514675,1,rooftop,2456,"Ohio Ave",,,Cincinnati,OH,"Hamilton County",45219,US,Hamilton
38.2542,-85.7594,53,38.253863,-85.759401,0.99,rooftop,500,"W Jefferson St",,,Louisville,KY,"Jefferson County",40202,US,"Metro Louisville,  LOJIC partners"
34.09,-118.3617,54,34.090029,-118.362135,0.99,rooftop,1049,"N Fairfax Ave",,,"West Hollywood",CA,"Los Angeles County",90046,US,"Los Angeles"
43.5499,-96.7003,55,43.549896,-96.70049,1,rooftop,313,"N Chicago Ave",,,"Sioux Falls",SD,"Minnehaha County",57103,US,"City of Sioux Falls"
38.4784,-82.6379,56,38.478445,-82.638011,1,rooftop,224,"17th St",,,Ashland,KY,"Boyd County",41101,US,Boyd
34.3665,-89.5192,57,34.366898,-89.519232,0.97,nearest_street,1088,"E Jackson Ave",,,Oxford,MS,"Lafayette County",38655,US,"TIGER/Line® dataset from the US Census Bureau"
42.4393,-123.3307,58,42.439353,-123.330325,1,rooftop,214,"4th St",,,"Grants Pass",OR,"Josephine County",97526,US,Josephine
36.166,-86.7842,59,36.166816,-86.785108,0.98,rooftop,436,"6th Ave N",,,Nashville,TN,"Davidson County",37203,US,"City of Nashville"
42.6528,-79.0062,60,42.652891,-79.006308,1,rooftop,1348,"Eden Evans Center Rd",,,Angola,NY,"Erie County",14006,US,"NYS GIS Program Office, State Geographic Information Officer (GIO)"
41.6284,-87.5979,61,41.628286,-87.597504,0.99,rooftop,807,"California Ave",,,Dolton,IL,"Cook County",60419,US,Cook
41.0668,-73.4842,62,41.066779,-73.484051,1,rooftop,2,"Renshaw Rd",,,Darien,CT,"Fairfield County",06820,US,"Connecticut Geospatial Information Systems Council"
42.29,-85.5858,63,42.289753,-85.585978,0.97,nearest_street,300,"St John Pl",,,Kalamazoo,MI,"Kalamazoo County",49007,US,"TIGER/Line® dataset from the US Census Bureau"
21.3069,-157.8583,64,21.306799,-157.858762,0.99,rooftop,364,"S King St",,,Honolulu,HI,"Honolulu County",96813,US,Honolulu
41.0808,-85.1391,65,41.080606,-85.139161,1,rooftop,1,"E Main St",,,"Fort Wayne",IN,"Allen County",46802,US,Allen
40.7834,-73.9663,66,40.784867,-73.969856,0.95,rooftop,251,"Central Park W",,,"New York",NY,"New York County",10024,US,"City of New York"
34.0693,-118.3118,67,34.06924,-118.31177,1,rooftop,265,"S St Andrews Pl",,,"Los Angeles",CA,"Los Angeles County",90004,US,"City of Los Angeles"
29.7603,-95.3644,68,29.760395,-95.364395,1,rooftop,603,"Milam St",,,Houston,TX,"Harris County",77002,US,"City of Houston"
32.7357,-97.1081,69,32.736067,-97.107795,0.99,rooftop,101,"W Abram St",,,Arlington,TX,"Tarrant County",76010,US,"Statewide TX"
45.0275,-84.6748,70,45.027367,-84.67387,0.96,nearest_street,100,"N Center Ave",,,Gaylord,MI,"Otsego County",49735,US,"TIGER/Line® dataset from the US Census Bureau"
37.323,-122.0321,71,37.32331,-122.03181,0.99,rooftop,10002,"DE Anza Blvd",,,Cupertino,CA,"Santa Clara County",95014,US,"Santa Clara"
61.5809,-149.4415,72,61.581139,-149.442179,0.99,rooftop,391,"E Parks Hwy",,,Wasilla,AK,"Matanuska-Susitna Borough",99654,US,"Matanuska Susitna Borough"
41.7302,-71.5352,73,41.72985,-71.53529,0.99,rooftop,56,"N Pleasant St",,,"West Warwick",RI,"Kent County",02893,US,"City of Cranston"
36.1749,-115.13720000000001,74,36.175337,-115.137282,0.99,rooftop,601,"N Las Vegas Blvd",,,"Las Vegas",NV,"Clark County",89101,US,"Las Vegas"
39.0438,-77.4874,75,39.043684,-77.487196,1,rooftop,20702,"Ashburn Rd",,,Ashburn,VA,"Loudoun County",20147,US,"Virginia Geographic Information Network (VGIN)"
41.8757,-87.6243,76,41.875518,-87.624825,0.99,rooftop,500,"S Michigan Ave",,,Chicago,IL,"Cook County",60605,US,Cook
25.7907,-80.1339,77,25.79072,-80.133964,1,rooftop,551,"Lincoln Rd",,,"Miami Beach",FL,"Miami-Dade County",33139,US,Statewide2
44.5434,-68.4195,78,44.543416,-68.419704,1,rooftop,232,"Main St",,,Ellsworth,ME,"Hancock County",04605,US,"Maine Office of GIS"
38.254,-104.6111,79,38.253551,-104.611888,0.99,rooftop,721,"Box Elder St",,,Pueblo,CO,"Pueblo County",81004,US,"Statewide CO"
45.7832,-108.5006,80,45.783403,-108.500776,1,rooftop,2413,"Montana Ave",,,Billings,MT,"Yellowstone County",59101,US,"Montana State Library"
36.6777,-121.6559,81,36.678033,-121.656122,0.99,rooftop,10,"W Market St",,,Salinas,CA,"Monterey County",93901,US,Monterey
37.7599,-78.8709,82,37.759954,-78.870886,1,rooftop,605,"Front St",,,Lovingston,VA,"Nelson County",22949,US,Nelson
40.7933,-77.86,83,40.793292,-77.859793,1,rooftop,211,"S Allen St",,,"State College",PA,"Centre County",16801,US,Centre
34.7648,-83.064,84,34.764591,-83.064019,1,rooftop,202,"E Main St",,,Walhalla,SC,"Oconee County",29691,US,Oconee
39.2798,-89.8818,85,39.279942,-89.882324,0.99,rooftop,494,"W Side Sq",,,Carlinville,IL,"Macoupin County",62626,US,Macoupin
42.2594,-89.0644,86,42.259229,-89.064589,1,rooftop,803,"16th St",,,Rockford,IL,"Winnebago County",61104,US,Winnebago
34.2257,-77.9447,87,34.22586,-77.944617,1,rooftop,719,"S 3rd St",,,Wilmington,NC,"New Hanover County",28401,US,"New Hanover"
42.0373,-88.2812,88,42.037068,-88.281282,1,rooftop,225,"E Chicago St",,,Elgin,IL,"Kane County",60120,US,Kane
32.7174,-117.166,89,32.717459,-117.165896,1,rooftop,1150,"Union St",,,"San Diego",CA,"San Diego County",92101,US,"San Diego Geographic Information Source - JPA"
39.961,-75.608,90,39.960937,-75.607915,1,rooftop,115,"W Chestnut St",,,"West Chester",PA,"Chester County",19380,US,Chester
34.1954,-79.7626,91,34.195462,-79.762688,1,rooftop,204,"E Cheves St",,,Florence,SC,"Florence County",29506,US,Florence
40.7439,-74.0323,92,40.743875,-74.032235,1,rooftop,257,"6th St",,,Hoboken,NJ,"Hudson County",07030,US,"NJ Office of Information Technology (NJOIT), Office of Geographic Information Systems (OGIS)"
37.3538,-121.9564,93,37.353769,-121.956731,1,rooftop,1661,"Triton Ct",,,"Santa Clara",CA,"Santa Clara County",95050,US,"City of Santa Clara"
46.1262,-67.8403,94,46.126215,-67.839907,1,rooftop,6,"Water St",,,Houlton,ME,"Aroostook County",04730,US,"Maine Office of GIS"
40.6904,-73.9862,95,40.690748,-73.985933,0.99,rooftop,422,"Fulton St",,,Brooklyn,NY,"Kings County",11201,US,"City of New York"
41.8758,-87.6866,96,41.87575,-87.686676,1,rooftop,432,"S Western Ave",,,Chicago,IL,"Cook County",60612,US,"City of Chicago"
42.3736,-71.1097,97,42.373375,-71.110144,0.99,rooftop,441,Broadway,,,Cambridge,MA,"Middlesex County",02138,US,"City of Cambridge"
33.4492,-112.0741,98,33.449181,-112.074121,1,rooftop,50,"N Central Ave",,,Phoenix,AZ,"Maricopa County",85004,US,Maricopa
40.6995,-99.0815,99,40.699584,-99.081339,1,rooftop,2401,"Central Ave",,,Kearney,NE,"Buffalo County",68847,US,"Statewide NE"
33.9412,-84.2135,100,33.941176,-84.213457,1,rooftop,87,"Peachtree St",,,Norcross,GA,"Gwinnett County",30071,US,Gwinnett
38.5799,-121.4962,101,38.580109,-121.496021,1,rooftop,801,"K St",,,Sacramento,CA,"Sacramento County",95814,US,Sacramento
43.3194,-87.9517,102,43.319331,-87.951794,1,rooftop,1215,"12th Ave",,,Grafton,WI,"Ozaukee County",53024,US,"Statewide WI"
39.9525,-75.1636,103,39.952499,-75.163837,1,rooftop,1400,"John F Kennedy Blv",,,Philadelphia,PA,"Philadelphia County",19107,US,Philadelphia
26.962,-82.3526,104,26.96211,-82.35304,0.99,rooftop,2,"S Indiana Ave",,,Englewood,FL,"Sarasota County",34223,US,Statewide2
36.8251,-119.7021,105,36.825024,-119.701855,1,rooftop,401,"Pollasky Ave",,,Clovis,CA,"Fresno County",93612,US,Fresno
46.8771,-96.7898,106,46.877118,-96.789515,1,rooftop,641,"1st Ave N",,,Fargo,ND,"Cass County",58102,US,"City of Fargo"
28.5347,-81.387200000000007,107,28.534508,-81.387129,1,rooftop,715,"Avondale Ave",,,Orlando,FL,"Orange County",32805,US,Statewide2
37.8715,-122.273,108,37.871699,-122.273188,1,rooftop,1988,"Martin Luther King Jr Way",,,Berkeley,CA,"Alameda County",94704,US,Alameda
42.3591,-71.0639,109,42.359097,-71.064221,1,rooftop,64,"Hancock St",,,Boston,MA,"Suffolk County",02114,US,"Office of Geographic Information (MassGIS), Commonwealth of Massachusetts, MassIT"
39.5009,-89.7679,110,39.500858,-89.768289,0.99,rooftop,119,"N Springfield St",,,Virden,IL,"Macoupin County",62690,US,Macoupin
43.1547,-77.6155,111,43.154666,-77.61575,1,rooftop,99,"W Main St",,,Rochester,NY,"Monroe County",14614,US,"City of Rochester"
44.0581,-121.3153,112,44.058344,-121.315285,1,rooftop,801,"Wall St",,,Bend,OR,"Deschutes County",97703,US,Deschutes
41.1544,-96.0422,113,41.154105,-96.04226,0.99,rooftop,307,"S Washington St",,,Papillion,NE,"Sarpy County",68046,US,Sarpy
39.8289,-84.8902,114,39.828834,-84.890197,1,rooftop,901,"E Main St",,,Richmond,IN,"Wayne County",47374,US,Wayne
39.2667,-81.5615,115,39.266827,-81.561712,1,rooftop,425,"Juliana St",,,Parkersburg,WV,"Wood County",26101,US,"Statewide WV"
38.5792,-92.173,116,38.578951,-92.173369,0.99,rooftop,206,"W High St",,,"Jefferson City",MO,"Cole County",65101,US,Cole
33.7559,-84.3898,117,33.755944,-84.389731,1,rooftop,57,"Forsyth St NW",,,Atlanta,GA,"Fulton County",30303,US,Fulton
41.8238,-71.4125,118,41.823636,-71.412661,1,rooftop,60,"Eddy St",,,Providence,RI,"Providence County",02903,US,"Statewide RI"
39.5505,-107.32470000000001,119,39.550787,-107.324389,0.99,rooftop,526,"Pine St",,,"Glenwood Springs",CO,"Garfield County",81601,US,Garfield
33.0462,-96.9941,120,33.046016,-96.994309,1,rooftop,102,"W Main St",,,Lewisville,TX,"Denton County",75057,US,"City of Lewisville"
38.9171,-77.0003,121,38.917107,-77.000335,1,rooftop,1961,"4th St NE",,,Washington,DC,"District of Columbia",20002,US,"Statewide DC"
40.6804,-73.4551,122,40.680306,-73.455112,1,rooftop,1049,"Park Blvd",,,"Massapequa Park",NY,"Nassau County",11762,US,"NYS GIS Program Office, State Geographic Information Officer (GIO)"
40.2726,-76.8875,123,40.272634,-76.887505,1,rooftop,1420,"Wyeth St",,,Harrisburg,PA,"Dauphin County",17102,US,Dauphin
38.9381,-77.0451,124,38.938177,-77.04484,1,rooftop,1907,"Quincy St NW",,,Washington,DC,"District of Columbia",20011,US,"Statewide DC"
38.8875,-77.0364,125,38.88816,-77.037438,0.98,rooftop,1601,"Independence Ave SW",,,Washington,DC,"District of Columbia",20004,US,"Statewide DC"
44.9833,-93.2666,126,44.983222,-93.266552,1,rooftop,15,"1st St S",,,Minneapolis,MN,"Hennepin County",55401,US,Hennepin
34.0433,-118.2495,127,34.04301,-118.24974,0.99,rooftop,219,"E 7th St",,,"Los Angeles",CA,"Los Angeles County",90014,US,"City of Los Angeles"
27.9508,-82.4571,128,27.950623,-82.457143,1,rooftop,500,"E Zack St",,,Tampa,FL,"Hillsborough County",33602,US,Hillsborough
42.5864,-82.9169,129,42.586412,-82.916886,1,rooftop,20272,"White Oaks Dr",,,"Clinton Township",MI,"Macomb County",48036,US,Semcog
38.8048,-77.0469,130,38.804751,-77.046838,1,rooftop,102,"S Washington St",,,Alexandria,VA,"Alexandria City",22314,US,"City of Alexandria"
34.0192,-118.496,131,34.019263,-118.496109,1,rooftop,1235,"5th St",,,"Santa Monica",CA,"Los Angeles County",90401,US,"Los Angeles"
33.5807,-112.2373,132,33.580211,-112.237343,0.99,rooftop,8295,"W Washington St",,,Peoria,AZ,"Maricopa County",85345,US,Maricopa
29.5688,-97.9647,133,29.568823,-97.964883,1,rooftop,103,"W Court St",,,Seguin,TX,"Guadalupe County",78155,US,"Statewide TX"
43.6185,-116.1999,134,43.618547,-116.199932,1,rooftop,714,"W State St",,,Boise,ID,"Ada County",83702,US,Ada
37.6014,-120.9572,135,37.601363,-120.957562,0.99,rooftop,1837,"Central Ave",,,Ceres,CA,"Stanislaus County",95307,US,Stanislaus
44.2928,-72.6793,136,44.292963,-72.679186,1,rooftop,920,"US Route 2",,,Montpelier,VT,"Washington County",05602,US,"Statewide VT"
26.1223,-80.1378,137,26.122464,-80.138178,0.99,rooftop,515,"E Broward Blvd",,,"Fort Lauderdale",FL,"Broward County",33301,US,Statewide2
43.0384,-87.9057,138,43.038356,-87.905728,1,rooftop,411,"E Wisconsin Ave",,,Milwaukee,WI,"Milwaukee County",53202,US,Milwaukee
41.0998,-80.6495,139,41.099685,-80.649014,0.99,rooftop,47,"Federal Plz E",,,Youngstown,OH,"Mahoning County",44503,US,Mahoning
41.5235,-90.5778,140,41.5234,-90.577667,1,rooftop,315,"W 4th St",,,Davenport,IA,"Scott County",52801,US,"Statewide IA"
40.064,-80.7209,141,40.063821,-80.72111,1,rooftop,44,"16th St",,,Wheeling,WV,"Ohio County",26003,US,"Statewide WV"
40.7061,-73.6203,142,40.706093,-73.620463,1,rooftop,1,"Washington St",,,Hempstead,NY,"Nassau County",11550,US,"NYS GIS Program Office, State Geographic Information Officer (GIO)"
41.9738,-91.6768,143,41.973772,-91.67679,1,rooftop,427,"2nd Ave SW",,,"Cedar Rapids",IA,"Linn County",52404,US,"Statewide IA"
41.7947,-87.5932,144,41.794725,-87.593076,1,rooftop,5509,"S Kenwood Ave",,,Chicago,IL,"Cook County",60637,US,Cook
34.7575,-112.4539,145,34.757451,-112.45353,0.99,rooftop,801,"N State Route 89",,,"Chino Valley",AZ,"Yavapai County",86323,US,Yavapai
35.1495,-90.0489,146,35.149381,-90.049123,1,rooftop,157,"Poplar Ave",,,Memphis,TN,"Shelby County",38103,US,Shelby
39.2191,-121.0611,147,39.218971,-121.061449,0.99,rooftop,125,"E Main St",,,"Grass Valley",CA,"Nevada County",95945,US,Nevada
41.2459,-75.8813,148,41.245872,-75.880947,1,rooftop,52,"Public Sq",,,"Wilkes Barre",PA,"Luzerne County",18701,US,Luzerne
43.9553,-86.4526,149,43.95531,-86.452457,1,rooftop,401,"W Ludington Ave Unit201",,,Ludington,MI,"Mason County",49431,US,Mason
47.6056,-122.333,150,47.605692,-122.333056,1,rooftop,925,"4th Ave",,,Seattle,WA,"King County",98104,US,King
42.28,-83.7458,151,42.280129,-83.74559,1,rooftop,310,"E Washington St",,,"Ann Arbor",MI,"Washtenaw County",48104,US,Semcog
44.8016,-68.7712,152,44.80146,-68.771081,1,rooftop,1,"W Market Sq",,,Bangor,ME,"Penobscot County",04401,US,"Maine Office of GIS"
44.9513,-93.0946,153,44.951504,-93.094549,1,rooftop,123,"10th St E",,,"Saint Paul",MN,"Ramsey County",55101,US,Ramsey
41.7673,-72.6762,154,41.767519,-72.676379,1,rooftop,208,"Asylum St",,,Hartford,CT,"Hartford County",06103,US,"Connecticut Geospatial Information Systems Council"
44.6689,-90.1718,155,44.668891,-90.171799,1,rooftop,205,"N Central Ave",,,Marshfield,WI,"Wood County",54449,US,Wood
39.2903,-76.6121,156,39.290189,-76.61192,1,rooftop,5,"N Calvert St",,,Baltimore,MD,"Baltimore City",21202,US,"Statewide MD"
37.6428,-120.9918,157,37.642746,-120.991799,1,rooftop,726,"16th St",,,Modesto,CA,"Stanislaus County",95354,US,Stanislaus
35.6145,-88.814,158,35.614421,-88.813912,1,rooftop,455,"Main St E",,,Jackson,TN,"Madison County",38301,US,"Statewide TN"
40.925,-98.342,159,40.925391,-98.341084,0.95,nearest_street,300,"N Locust St",,,"Grand Island",NE,"Hall County",68801,US,"TIGER/Line® dataset from the US Census Bureau"
44.5192,-88.0198,160,44.519098,-88.019746,1,rooftop,317,"Dousman St",,,"Green Bay",WI,"Brown County",54303,US,Brown
39.0484,-95.6781,161,39.047962,-95.677975,0.99,rooftop,915,"SW Jackson St",,,Topeka,KS,"Shawnee County",66612,US,"Shawnee County"
40.0149,-105.27,162,40.014954,-105.270048,1,rooftop,1520,"19th St",,,Boulder,CO,"Boulder County",80302,US,"Statewide CO"
40.1672,-105.1019,163,40.167076,-105.102078,1,rooftop,468,"Main St",,,Longmont,CO,"Boulder County",80501,US,"Statewide CO"
35.9132,-79.0558,164,35.913216,-79.056005,1,rooftop,98,"W Franklin St",,,"Chapel Hill",NC,"Orange County",27516,US,Orange
32.7792,-96.8004,165,32.779301,-96.800016,0.99,rooftop,211,"S Akard St",,,Dallas,TX,"Dallas County",75202,US,Dallas
39.7594,-84.1916,166,39.75936,-84.191454,1,rooftop,4,"S Main St",,,Dayton,OH,"Montgomery County",45402,US,Montgomery
38.2006,-84.874,167,38.2007,-84.874148,1,rooftop,513,"Ann St",,,Frankfort,KY,"Franklin County",40601,US,Franklin
40.6767,-95.8592,168,40.676883,-95.859207,1,rooftop,1106,"Central Ave",,,"Nebraska City",NE,"Otoe County",68410,US,"Statewide NE"
43.4195,-83.9508,169,43.41973,-83.949084,0.94,nearest_street,26,"E Holland Ave",,,Saginaw,MI,"Saginaw County",48601,US,"TIGER/Line® dataset from the US Census Bureau"
46.8172,-95.8453,170,46.817123,-95.845132,1,rooftop,901,"S Washington Ave",,,"Detroit Lakes",MN,"Becker County",56501,US,Becker
27.7674,-82.6409,171,27.767523,-82.640907,1,rooftop,535,"4th Ave S",,,"Saint Petersburg",FL,"Pinellas County",33701,US,Pinellas
39.6295,-79.9559,172,39.629554,-79.955945,1,rooftop,264,"High St",,,Morgantown,WV,"Monongalia County",26505,US,"Statewide WV"
26.7097,-80.0642,173,26.70985,-80.06406,1,rooftop,500,"S Australian Ave",,,"West Palm Beach",FL,"Palm Beach County",33401,US,Statewide2
35.0527,-78.8784,174,35.052876,-78.878545,1,rooftop,100,"Hay St",,,Fayetteville,NC,"Cumberland County",28301,US,"NC Geographic Information Coordinating Council"
43.0947,-75.2758,175,43.09431,-75.27563,0.99,rooftop,1700,"Burrstone Rd",,,"New Hartford",NY,"Oneida County",13413,US,"NYS GIS Program Office, State Geographic Information Officer (GIO)"
35.4657,-97.5128,176,35.465344,-97.512808,0.99,rooftop,150,"S E K Gaylord Blvd",,,"Oklahoma City",OK,"Oklahoma County",73102,US,"Acog Counties"
30.4382,-84.2803,177,30.438765,-84.28066,0.99,rooftop,401,"S Monroe St",,,Tallahassee,FL,"Leon County",32301,US,Statewide2
36.0999,-80.2442,178,36.100134,-80.244407,1,rooftop,1,"303 W 5th St",,,"Winston Salem",NC,"Forsyth County",27101,US,"NC Geographic Information Coordinating Council"
39.7392,-104.991,179,39.739239,-104.990961,1,rooftop,1437,"N Bannock St",,,Denver,CO,"Denver County",80202,US,"Statewide CO"
30.4209,-87.2169,180,30.420817,-87.217234,0.99,rooftop,747,"N Palafox St",,,Pensacola,FL,"Escambia County",32501,US,Statewide2
38.3032,-77.4605,181,38.303224,-77.46047,1,rooftop,222,"William St",,,Fredericksburg,VA,"Fredericksburg City",22401,US,"Virginia Geographic Information Network (VGIN)"
33.6357,-96.6089,182,33.635763,-96.608846,1,rooftop,123,"S Travis St",,,Sherman,TX,"Grayson County",75090,US,"City of Sherman"
42.9909,-71.4502,183,42.990686,-71.450209,1,rooftop,377,"Hanover St",,,Manchester,NH,"Hillsborough County",03104,US,"Statewide NH"
33.7533,-78.9172,184,33.753491,-78.916912,0.99,rooftop,268,"Turning Pines Lp",,,"Myrtle Beach",SC,"Horry County",29579,US,Horry
35.8423,-90.7042,185,35.842477,-90.704131,1,rooftop,103,"S Church St",,,Jonesboro,AR,"Craighead County",72401,US,"Arkansas Geographic Information Office"
44.0266,-116.9629,186,44.026346,-116.962811,1,rooftop,36,"S Oregon St",,,Ontario,OR,"Malheur County",97914,US,Malheur
27.8006,-97.3964,187,27.801015,-97.397491,0.95,nearest_street,1100,"N Tancahua St",,,"Corpus Christi",TX,"Nueces County",78401,US,"TIGER/Line® dataset from the US Census Bureau"
34.0395,-118.44,188,34.0398,-118.4396,0.99,rooftop,2140,"S Cotner Ave",,,"Los Angeles",CA,"Los Angeles County",90025,US,"City of Los Angeles"
45.5761,-122.7246,189,45.576121,-122.724681,1,rooftop,5104,"N Yale St",,,Portland,OR,"Multnomah County",97203,US,"Portland Metro"
29.6524,-82.3266,190,29.652312,-82.326732,1,rooftop,204,"W University Ave",,,Gainesville,FL,"Alachua County",32601,US,Alachua
41.5862,-93.6234,191,41.586011,-93.623433,1,rooftop,280,"5th Ave",,,"Des Moines",IA,"Polk County",50309,US,"Statewide IA"
42.8886,-88.0384,192,42.888728,-88.038571,1,nearest_street,,"WI 36",,,Franklin,WI,"Milwaukee County",53132,US,"TIGER/Line® dataset from the US Census Bureau"
30.3323,-81.6571,193,30.332436,-81.65716,1,rooftop,53,"Union St W",,,Jacksonville,FL,"Duval County",32202,US,Statewide2
45.5946,-121.1787,194,45.594584,-121.17884,1,rooftop,912,"E 10th St",,,"The Dalles",OR,"Wasco County",97058,US,Wasco
43.2082,-71.5383,195,43.208532,-71.538293,0.99,rooftop,10,"Centre St",,,Concord,NH,"Merrimack County",03301,US,"Statewide NH"
43.0117,-88.2315,196,43.011705,-88.231525,1,rooftop,294,"W Main St",,,Waukesha,WI,"Waukesha County",53186,US,"Statewide WI"
40.8257,-73.2026,197,40.825901,-73.20231,0.99,rooftop,527,"Townline Rd",,,Hauppauge,NY,"Suffolk County",11788,US,"NYS GIS Program Office, State Geographic Information Officer (GIO)"
36.1867,-94.1288,198,36.186951,-94.129246,0.99,rooftop,201,"Spring St",,,Springdale,AR,"Washington County",72764,US,"Arkansas Geographic Information Office"
37.8044,-122.2711,199,37.804395,-122.270653,0.99,rooftop,436,"14th St",,,Oakland,CA,"Alameda County",94612,US,Alameda
33.961,-83.3779,200,33.961008,-83.377836,1,rooftop,165,"E Dougherty St",,,Athens,GA,"Clarke County",30601,US,"City of Athens"
40.808,-96.699700000000007,201,40.808056,-96.699711,0.99,rooftop,1445,"K St",,,Lincoln,NE,"Lancaster County",68508,US,Lancaster
44.076,-103.228,202,44.075816,-103.227562,0.99,rooftop,516,"South St",,,"Rapid City",SD,"Pennington County",57701,US,"Statewide SD"
41.4528,-82.1824,203,41.452805,-82.18261,1,rooftop,1854,"Hamilton Ave",,,Lorain,OH,"Lorain County",44052,US,Lorain
41.9428,-79.9845,204,41.943154,-79.984397,0.99,rooftop,319,"High St",,,Waterford,PA,"Erie County",16441,US,Erie
45.5134,-122.6809,205,45.51331,-122.680867,1,rooftop,1515,"SW 5th Ave",,,Portland,OR,"Multnomah County",97201,US,"Portland Metro"
34.7048,-85.2819,206,34.704665,-85.281547,0.99,rooftop,115,"E Lafayette Sq",,,"La Fayette",GA,"Walker County",30728,US,"Walker County"
41.5067,-90.5151,207,41.5067,-90.514972,0.98,nearest_street,500,"16th St",,,Moline,IL,"Rock Island County",61265,US,"TIGER/Line® dataset from the US Census Bureau"
33.5338,-82.1307,208,33.534149,-82.130832,0.99,rooftop,4385,"Hereford Farm Rd",,,Evans,GA,"Columbia County",30809,US,Columbia
40.7375,-73.2419,209,40.737494,-73.242244,1,rooftop,1733,"Sunrise Highway Westbound Service Rd",,,"Bay Shore",NY,"Suffolk County",11706,US,"NYS GIS Program Office, State Geographic Information Officer (GIO)"
40.9382,-73.8321,210,40.938476,-73.831916,0.99,rooftop,133,"Pondfield Rd",,,Bronxville,NY,"Westchester County",10708,US,Westchester
41.1114,-74.1098,211,41.111459,-74.109899,1,rooftop,237,"State Rte 59",,,Suffern,NY,"Rockland County",10901,US,Rockland
40.9312,-73.8988,212,40.931086,-73.898924,1,rooftop,81,"S Broadway",,,Yonkers,NY,"Westchester County",10701,US,"NYS GIS Program Office, State Geographic Information Officer (GIO)"
46.8792,-102.7896,213,46.879297,-102.789461,1,rooftop,14,"3rd Ave W",,,Dickinson,ND,"Stark County",58601,US,Dickinson
41.6411,-88.4473,214,41.641273,-88.447425,1,rooftop,108,"W Van Emmon St",,,Yorkville,IL,"Kendall County",60560,US,Kendall
40.6265,-80.0559,215,40.626735,-80.055604,0.99,rooftop,11675,"Perry Hwy",,,Wexford,PA,"Allegheny County",15090,US,Allegheny
46.9105,-98.7084,216,46.910469,-98.708739,1,rooftop,223,"1st Ave N",,,Jamestown,ND,"Stutsman County",58401,US,Stutsman
35.65,-97.4667,217,35.649743,-97.46651,0.99,rooftop,1027,"Waterwood Pkwy",,,Edmond,OK,"Oklahoma County",73034,US,"Acog Counties"
38.3489,-81.6322,218,38.348495,-81.632057,0.99,rooftop,215,"Dunbar St",,,Charleston,WV,"Kanawha County",25301,US,"Statewide WV"
33.1506,-96.8236,219,33.150708,-96.823517,1,rooftop,7026,"Main St",,,Frisco,TX,"Collin County",75033,US,"Statewide TX"
30.4473,-91.189,220,30.447395,-91.188988,1,rooftop,100,"Lafayette St",,,"Baton Rouge",LA,"East Baton Rouge Parish",70801,US,"East Baton Rouge Parish"
44.7631,-85.6206,221,44.763226,-85.620641,1,rooftop,201,"E State St",,,"Traverse City",MI,"Grand Traverse County",49684,US,"Grand Traverse"
38.9098,-76.9761,222,38.911884,-76.976799,0.96,rooftop,1600,"Bladensburg Rd NE",,,Washington,DC,"District of Columbia",20002,US,"Statewide DC"
43.0481,-76.1474,223,43.048268,-76.147643,1,rooftop,300,"S State St",,,Syracuse,NY,"Onondaga County",13202,US,"NYS GIS Program Office, State Geographic Information Officer (GIO)"
46.8928,-93.6768,224,46.892501,-93.676195,0.99,rooftop,38946,"605th St",,,Swatara,MN,"Aitkin County",55785,US,Aitkin
39.3604,-104.5975,225,39.359372,-104.597837,0.98,rooftop,176,"E Elm St",,,Elizabeth,CO,"Elbert County",80107,US,"Statewide CO"
42.8864,-78.8779,226,42.886419,-78.878155,1,rooftop,5,"Niagara Sq",,,Buffalo,NY,"Erie County",14202,US,"NYS GIS Program Office, State Geographic Information Officer (GIO)"
45.864,-122.8065,227,45.863968,-122.806424,0.99,nearest_street,140,"S 8th St",,,"Saint Helens",OR,"Columbia County",97051,US,"TIGER/Line® dataset from the US Census Bureau"
44.0247,-88.5426,228,44.024742,-88.54275,1,rooftop,651,"Jackson St",,,Oshkosh,WI,"Winnebago County",54901,US,Winnebago
34.824,-89.9937,229,34.823552,-89.994125,0.96,nearest_street,2477,"US Hwy 51",,,Hernando,MS,"Desoto County",38632,US,"TIGER/Line® dataset from the US Census Bureau"
40.9257,-73.1409,230,40.925798,-73.140612,1,rooftop,89,"Cedar St",,,"Stony Brook",NY,"Suffolk County",11790,US,"NYS GIS Program Office, State Geographic Information Officer (GIO)"
42.5973,-82.878,231,42.597472,-82.878199,1,rooftop,21,"N Main St",,,"Mount Clemens",MI,"Macomb County",48043,US,Macomb
39.8178,-84.9964,232,39.817849,-84.996467,1,rooftop,100,"W W Main St St",,,Centerville,IN,"Wayne County",47330,US,"Statewide IN"
41.4988,-72.9001,233,41.498283,-72.900605,0.99,rooftop,2,"Town Ctr",,,Cheshire,CT,"New Haven County",06410,US,"Connecticut Geospatial Information Systems Council"
34.4214,-119.7008,234,34.421423,-119.700662,1,rooftop,916,"State St",,,"Santa Barbara",CA,"Santa Barbara County",93101,US,"Santa Barbara"
47.5002,-111.3008,235,47.500177,-111.301099,1,rooftop,414,"4th St S",,,"Great Falls",MT,"Cascade County",59405,US,"Montana State Library"
32.3187,-106.77,236,32.31867,-106.770292,1,rooftop,915,"E Picacho Ave",,,"Las Cruces",NM,"Doña Ana County",88001,US,"Statewide NM"
38.7525,-121.2894,237,38.752701,-121.289332,1,rooftop,327,"Grove St",,,Roseville,CA,"Placer County",95678,US,"City of Roseville"
32.8423,-104.4033,238,32.842346,-104.403343,1,rooftop,524,"W Main St",,,Artesia,NM,"Eddy County",88210,US,"Statewide NM"
45.4457,-122.6334,239,45.445685,-122.633344,1,rooftop,10712,"SE 29th Ave",,,Portland,OR,"Clackamas County",97222,US,"Portland Metro"
37.7272,-89.2167,240,37.727223,-89.216979,1,nearest_street,,"IL 13",,,Carbondale,IL,"Jackson County",62902,US,"TIGER/Line® dataset from the US Census Bureau"
42.5581,-71.2697,241,42.558416,-71.270022,0.99,rooftop,15,"Concord Rd",,,Billerica,MA,"Middlesex County",01821,US,"Office of Geographic Information (MassGIS), Commonwealth of Massachusetts, MassIT"
33.8339,-118.342,242,33.834079,-118.341943,1,rooftop,3132,"El Dorado St",,,Torrance,CA,"Los Angeles County",90503,US,"Los Angeles"
35.0867,-89.81,243,35.086749,-89.809966,1,rooftop,7582,"Southern Ave",,,Germantown,TN,"Shelby County",38138,US,Shelby
33.037,-117.292,244,33.037014,-117.292166,1,rooftop,1163,"S Coast Highway 101",,,Encinitas,CA,"San Diego County",92024,US,"San Diego Geographic Information Source - JPA"
40.2209,-74.759,245,40.220866,-74.758967,1,rooftop,318,"E State St",,,Trenton,NJ,"Mercer County",08608,US,"NJ Office of Information Technology (NJOIT), Office of Geographic Information Systems (OGIS)"
35.3732,-119.0187,246,35.373705,-119.018438,0.99,rooftop,1440,"Truxtun Ave",,,Bakersfield,CA,"Kern County",93301,US,"City of Bakersfield"
37.334,-121.891,247,37.334081,-121.890711,1,rooftop,90,"S Market St",,,"San Jose",CA,"Santa Clara County",95113,US,"City of San Jose2"
30.1591,-85.6603,248,30.1591,-85.66034,1,rooftop,613,"Harrison Ave",,,"Panama City",FL,"Bay County",32401,US,Statewide2
42.4275,-71.0727,249,42.427401,-71.072656,1,rooftop,205,"Pleasant St",,,Malden,MA,"Middlesex County",02148,US,"Office of Geographic Information (MassGIS), Commonwealth of Massachusetts, MassIT"
39.9613,-82.9991,250,39.961347,-82.998974,1,rooftop,1,"Capitol Sq",,,Columbus,OH,"Franklin County",43215,US,Franklin
35.042,-89.6645,251,35.042055,-89.66454,1,rooftop,127,"N Rowlett St",,,Collierville,TN,"Shelby County",38017,US,Shelby
31.1171,-97.7278,252,31.117374,-97.727969,0.99,rooftop,325,"E Veterans Memorial Blvd",,,Killeen,TX,"Bell County",76541,US,"Statewide TX"
43.8014,-91.2395,253,43.801192,-91.23918,0.99,rooftop,1003,"West Ave S",,,"La Crosse",WI,"La Crosse County",54601,US,"La Crosse"
33.3768,-79.2945,254,33.376579,-79.294612,1,rooftop,1801,"Highmarket St",,,Georgetown,SC,"Georgetown County",29440,US,"Georgetown County"
45.3,-122.9722,255,45.300304,-122.972573,0.97,nearest_street,749,"State Hwy 99W",,,Newberg,OR,"Yamhill County",97132,US,"TIGER/Line® dataset from the US Census Bureau"
33.3944,-104.5249,256,33.394458,-104.524815,1,rooftop,201,"W 2nd St",,,Roswell,NM,"Chaves County",88201,US,"Statewide NM"
40.2143,-77.0086,257,40.214357,-77.008359,1,rooftop,46,"N Market St",,,Mechanicsburg,PA,"Cumberland County",17055,US,Cumberland
27.9095,-82.7873,258,27.909326,-82.787275,1,rooftop,24,"8th Ave SE",,,Largo,FL,"Pinellas County",33771,US,Statewide2
42.6504,-73.7591,259,42.649314,-73.757672,0.97,rooftop,304,"Madison Ave",,,Albany,NY,"Albany County",12207,US,"NYS GIS Program Office, State Geographic Information Officer (GIO)"
27.4989,-82.5748,260,27.498638,-82.574927,1,rooftop,1303,"Barcarrota Blvd",,,Bradenton,FL,"Manatee County",34205,US,Manatee
41.6054,-74.1814,261,41.605238,-74.181093,1,rooftop,18,"Central Ave",,,Wallkill,NY,"Ulster County",12589,US,"NYS GIS Program Office, State Geographic Information Officer (GIO)"
32.7766,-79.9309,262,32.776693,-79.93081,1,rooftop,80,"Broad St",,,Charleston,SC,"Charleston County",29401,US,"City of Charleston"
40.272,-81.8596,263,40.271787,-81.859732,1,rooftop,659,"Walnut St",,,Coshocton,OH,"Coshocton County",43812,US,Coshocton
28.8017,-81.7336,264,28.801877,-81.732961,0.99,rooftop,551,"Main St",,,Tavares,FL,"Lake County",32778,US,Lake
39.0639,-108.5506,265,39.064144,-108.550414,1,rooftop,1315,"Pitkin Ave",,,"Grand Junction",CO,"Mesa County",81501,US,Mesa
38.7717,-76.0706,266,38.77165,-76.070446,1,rooftop,126,"S Locust Ln",,,Easton,MD,"Talbot County",21601,US,"Statewide MD"
30.6944,-88.0431,267,30.69444,-88.043457,0.99,rooftop,154,"St Louis St",,,Mobile,AL,"Mobile County",36602,US,"City of Mobile"
42.7534,-84.7464,268,42.753479,-84.746241,1,rooftop,228,Brg,,,"Grand Ledge",MI,"Eaton County",48837,US,Eaton
39.1857,-78.1633,269,39.185708,-78.16363,1,rooftop,135,"N Cameron St",,,Winchester,VA,"Winchester City",22601,US,"Virginia Geographic Information Network (VGIN)"
36.9286,-93.928,270,36.928817,-93.92799,0.98,nearest_street,104,"W Cleveland Ave",,,Monett,MO,"Barry County",65708,US,"TIGER/Line® dataset from the US Census Bureau"
25.765,-80.1943,271,25.76533,-80.194281,0.99,rooftop,50,"SW 9th St",,,Hialeah,FL,"Miami-Dade County",33010,US,Statewide2
38.8839,-75.8267,272,38.883981,-75.826834,1,rooftop,609,"Franklin St",,,Denton,MD,"Caroline County",21629,US,"Statewide MD"
26.8396,-80.1019,273,26.839513,-80.102022,1,nearest_street,,I-95,,,"West Palm Beach",FL,"Palm Beach County",33410,US,"TIGER/Line® dataset from the US Census Bureau"
32.9412,-97.1342,274,32.941556,-97.134397,0.99,rooftop,1110,"E Southlake Blvd",,,Southlake,TX,"Tarrant County",76092,US,"Statewide TX"
32.2687,-107.7586,275,32.26881,-107.758581,1,rooftop,101,"E Pine St",,,Deming,NM,"Luna County",88030,US,"Statewide NM"
39.7256,-85.8907,276,39.725651,-85.891156,0.99,rooftop,4143,"S Kelly Dr",,,"New Palestine",IN,"Hancock County",46163,US,"Statewide IN"
39.3722,-104.8561,277,39.372297,-104.856082,1,rooftop,222,"N Cantril St",,,"Castle Rock",CO,"Douglas County",80104,US,Douglas
41.2568,-95.9342,278,41.256817,-95.933765,0.99,rooftop,1313,"Farnam St",,,Omaha,NE,"Douglas County",68102,US,Douglas
34.7541,-77.4302,279,34.754444,-77.430423,0.99,rooftop,111,"Marine Blvd",,,Jacksonville,NC,"Onslow County",28540,US,"NC Geographic Information Coordinating Council"
42.1292,-80.0851,280,42.128844,-80.08529,0.99,rooftop,17,"S Park Row",,,Erie,PA,"Erie County",16501,US,Erie
33.1963,-80.0143,281,33.19622,-80.014355,1,rooftop,107,"W Main St",,,"Moncks Corner",SC,"Berkeley County",29461,US,Berkeley
34.8526,-82.394,282,34.852611,-82.39389,1,rooftop,304,"N Church St",,,Greenville,SC,"Greenville County",29601,US,"City of Greenville"
43.1789,-88.1173,283,43.17894,-88.117566,1,rooftop,"N88W 16723","Appleton Ave",,,"Menomonee Falls",WI,"Waukesha County",53051,US,"Statewide WI"
38.7317,-82.9977,284,38.731971,-82.998023,0.99,rooftop,711,"2nd St",,,Portsmouth,OH,"Scioto County",45662,US,Scioto
44.2619,-88.4154,285,44.261998,-88.415301,1,rooftop,638,"W College Ave",,,Appleton,WI,"Outagamie County",54911,US,Outagamie
39.1834,-96.5713,286,39.183425,-96.57128,1,rooftop,925,"Fremont St",,,Manhattan,KS,"Riley County",66502,US,"Riley County"
34.1361,-117.8653,287,34.136263,-117.865107,1,rooftop,108,"N Glendora Ave",,,Glendora,CA,"Los Angeles County",91741,US,"Los Angeles"
34.953,-120.4357,288,34.952829,-120.436123,0.99,rooftop,101,Broadway,,,"Santa Maria",CA,"Santa Barbara County",93454,US,"Santa Barbara"
46.8208,-94.5142,289,46.821062,-94.513969,0.99,rooftop,126,"Hazel St N",,,Backus,MN,"Cass County",56435,US,Cass
32.9342,-97.078,290,32.93422,-97.07797,1,rooftop,701,"S Main St",,,Grapevine,TX,"Tarrant County",76051,US,"Statewide TX"
40.3972,-105.0742,291,40.397203,-105.074223,1,rooftop,526,"N Cleveland Ave",,,Loveland,CO,"Larimer County",80538,US,"Statewide CO"
33.9375,-117.2306,292,33.937501,-117.230828,1,rooftop,24746,"Webster Ave",,,"Moreno Valley",CA,"Riverside County",92553,US,Riverside
32.2656,-97.1778,293,32.265448,-97.177735,1,rooftop,407,"Willow St",,,Grandview,TX,"Johnson County",76050,US,"Statewide TX"
34.1083,-117.2897,294,34.108618,-117.289862,0.99,rooftop,514,"N Arrowhead Ave",,,"San Bernardino",CA,"San Bernardino County",92401,US,"San Bernardino"
34.0564,-79.2464,295,34.056401,-79.246337,1,nearest_street,,"US 501",,,"Galivants Ferry",SC,"Horry County",29544,US,"TIGER/Line® dataset from the US Census Bureau"
42.0853,-76.8092,296,42.084463,-76.808739,0.98,rooftop,260,"W Chemung Pl",,,Elmira,NY,"Chemung County",14904,US,"NYS GIS Program Office, State Geographic Information Officer (GIO)"
29.9546,-90.075,297,29.954882,-90.074948,1,rooftop,145,"Elk Pl",,,"New Orleans",LA,"Orleans Parish",70112,US,"City of New Orleans"
37.208,-93.2903,298,37.208024,-93.290142,1,rooftop,301,"S Jefferson Ave",,,Springfield,MO,"Greene County",65806,US,Greene
41.7481,-88.1656,299,41.748232,-88.165735,1,rooftop,967,"75th St",,,Naperville,IL,"Dupage County",60565,US,"City of Naperville"
34.6834,-82.8374,300,34.683504,-82.837269,1,rooftop,370,"College Ave",,,Clemson,SC,"Pickens County",29631,US,Pickens
27.3364,-82.5307,301,27.33647,-82.53101,1,rooftop,1999,"Main St",,,Sarasota,FL,"Sarasota County",34236,US,Statewide2
40.804,-124.1654,302,40.803941,-124.165648,1,rooftop,236,"G St",,,Eureka,CA,"Humboldt County",95501,US,"City of Eureka"
38.5725,-109.5497,303,38.572762,-109.549456,0.99,rooftop,50,"E Center St",,,Moab,UT,"Grand County",84532,US,"Utah AGRC (and individual UT counties)"
34.2581,-88.7046,304,34.258116,-88.704466,0.98,nearest_street,149,"N Spring St",,,Tupelo,MS,"Lee County",38804,US,"TIGER/Line® dataset from the US Census Bureau"
38.8689,-76.9763,305,38.869023,-76.976366,1,rooftop,1920,"Ridge Pl SE",,,Washington,DC,"District of Columbia",20020,US,"Statewide DC"
42.7261,-87.7829,306,42.726243,-87.783075,1,rooftop,614,"Main St",,,Racine,WI,"Racine County",53403,US,"Statewide WI"
36.3729,-94.2088,307,36.37284,-94.209013,1,rooftop,113,"N Main St",,,Bentonville,AR,"Benton County",72712,US,"Arkansas Geographic Information Office"
41.0814,-81.519,308,41.081338,-81.518905,1,rooftop,144,"S Main St",,,Akron,OH,"Summit County",44308,US,Summit
41.3078,-75.3209,309,41.307477,-75.321107,0.99,rooftop,465,"Crestmont Dr",,,Newfoundland,PA,"Wayne County",18445,US,Wayne
39.3331,-82.9824,310,39.333072,-82.982534,1,rooftop,6,"W Main St",,,Chillicothe,OH,"Ross County",45601,US,Ross
34.6948,-84.4822,311,34.694854,-84.48226,1,rooftop,10,"N Main St",,,Ellijay,GA,"Gilmer County",30540,US,"Gilmer County"
39.7092,-84.0633,312,39.709194,-84.063294,1,rooftop,665,"N Fairfield Rd",,,Beavercreek,OH,"Greene County",45434,US,Greene
44.8114,-91.4985,313,44.81157,-91.498572,1,rooftop,210,"S Farwell St",,,"Eau Claire",WI,"Eau Claire County",54701,US,"Statewide WI"
41.4822,-81.6697,314,41.482523,-81.670225,0.99,rooftop,2929,"Rockefeller Ave",,,Cleveland,OH,"Cuyahoga County",44115,US,Cuyahoga
34.4358,-119.8276,315,34.43565,-119.82756,1,rooftop,5841,"Hollister Ave",,,Goleta,CA,"Santa Barbara County",93117,US,"Santa Barbara"
42.5669,-92.6221,316,42.566949,-92.622363,1,rooftop,422,"Packwaukee St",,,"New Hartford",IA,"Butler County",50660,US,"Statewide IA"
32.8323,-79.8284,317,32.832207,-79.828523,1,nearest_street,,"US 17",,,"Mount Pleasant",SC,"Charleston County",29464,US,"TIGER/Line® dataset from the US Census Bureau"
32.7254,-97.3209,318,32.725229,-97.320627,1,nearest_street,,I-35W,,,"Fort Worth",TX,"Tarrant County",76104,US,"TIGER/Line® dataset from the US Census Bureau"
38.0293,-78.4767,319,38.029296,-78.476737,1,rooftop,700,"E Main St",,,Charlottesville,VA,"Charlottesville City",22902,US,"Virginia Geographic Information Network (VGIN)"
42.5846,-87.824,320,42.584632,-87.823713,1,rooftop,1010,"56th St",,,Kenosha,WI,"Kenosha County",53140,US,Kenosha
30.1252,-91.8335,321,30.125078,-91.833519,1,rooftop,421,"W W Bridge St St",,,"Saint Martinville",LA,"St. Martin Parish",70582,US,"St Martin"
38.9516,-92.3343,322,38.951875,-92.334312,1,rooftop,221,"E Broadway",,,Columbia,MO,"Boone County",65203,US,"City of Columbia"
37.5629,-122.3259,323,37.562977,-122.325468,0.99,rooftop,2,"E 3rd Ave",,,"San Mateo",CA,"San Mateo County",94401,US,"San Mateo"
45.4889,-122.6747,324,45.488982,-122.675115,0.99,rooftop,4747,"S Kelly Ave",,,Portland,OR,"Multnomah County",97239,US,"Portland Metro"
37.5485,-121.9882,325,37.548699,-121.987934,0.99,rooftop,3998,"Mowry Ave",,,Fremont,CA,"Alameda County",94538,US,Alameda
40.3101,-75.1299,326,40.310073,-75.129899,1,rooftop,20,"State St",,,Doylestown,PA,"Bucks County",18901,US,Bucks
44.1004,-70.2148,327,44.100187,-70.214797,1,rooftop,11,"Sabattus St",,,Lewiston,ME,"Androscoggin County",04240,US,"Maine Office of GIS"
37.3771,-77.5058,328,37.376799,-77.505949,0.99,rooftop,6751,"Mimms Loop",,,Chesterfield,VA,"Chesterfield County",23832,US,"Virginia Geographic Information Network (VGIN)"
46.0645,-118.343,329,46.064271,-118.343419,0.99,rooftop,300,"W Alder St",,,"Walla Walla",WA,"Walla Walla County",99362,US,"Walla Walla"
36.0397,-114.9819,330,36.04046,-114.982088,0.99,rooftop,110,"Boulder Hwy",,,Henderson,NV,"Clark County",89015,US,Henderson
35.6875,-105.9386,331,35.687429,-105.938522,1,rooftop,63,"Lincoln Ave",,,"Santa Fe",NM,"Santa Fe County",87501,US,"Statewide NM"
47.6596,-117.429,332,47.658622,-117.428814,0.98,rooftop,1116,"W Riverside Ave",,,Spokane,WA,"Spokane County",99201,US,"City of Spokane"
46.8721,-113.994,333,46.87187,-113.993912,1,rooftop,248,"N Higgins Ave",,,Missoula,MT,"Missoula County",59802,US,"Montana State Library"
42.7875,-86.1089,334,42.787855,-86.109415,0.99,rooftop,254,"River Ave",,,Holland,MI,"Ottawa County",49423,US,Ottawa
39.8667,-84.3,335,39.866602,-84.300184,1,rooftop,822,"Albert St",,,Englewood,OH,"Montgomery County",45322,US,Montgomery
32.5437,-86.2119,336,32.543769,-86.211967,1,rooftop,413,"N Broad St",,,Wetumpka,AL,"Elmore County",36092,US,Elmore
41.4261,-73.6789,337,41.42594,-73.67855,0.99,rooftop,38,"Gleneida Ave",,,Carmel,NY,"Putnam County",10512,US,"NYS GIS Program Office, State Geographic Information Officer (GIO)"
29.6977,-90.7864,338,29.69767,-90.786315,1,rooftop,3205,"W Park Ave",,,Gray,LA,"Terrebonne Parish",70359,US,Terrebonne
41.9265,-73.9988,339,41.92661,-73.998859,1,rooftop,22,"Hoffman St",,,Kingston,NY,"Ulster County",12401,US,"NYS GIS Program Office, State Geographic Information Officer (GIO)"
43.3095,-73.644,340,43.309502,-73.644286,1,rooftop,162,"Glen St",,,"Glens Falls",NY,"Warren County",12801,US,"NYS GIS Program Office, State Geographic Information Officer (GIO)"
33.0096,-83.5338,341,33.009671,-83.533812,1,nearest_street,,"US 129",,,Gray,GA,"Jones County",31032,US,"TIGER/Line® dataset from the US Census Bureau"
33.4252,-111.9402,342,33.425166,-111.940416,1,rooftop,510,"S Mill Ave",,,Tempe,AZ,"Maricopa County",85281,US,Maricopa
36.8525,-121.4016,343,36.852664,-121.401754,1,rooftop,355,"San Benito St",,,Hollister,CA,"San Benito County",95023,US,"San Benito"
34.9478,-97.9239,344,34.947392,-97.923813,0.97,nearest_street,80,"Maple St",,,Ninnekah,OK,"Grady County",73067,US,"TIGER/Line® dataset from the US Census Bureau"
41.9439,-71.2806,345,41.943815,-71.280665,1,rooftop,77,"Park St",,,Attleboro,MA,"Bristol County",02703,US,"Office of Geographic Information (MassGIS), Commonwealth of Massachusetts, MassIT"
46.358,-94.2008,346,46.358069,-94.20082,1,nearest_street,,"MN 210",,,Brainerd,MN,"Crow Wing County",56401,US,"TIGER/Line® dataset from the US Census Bureau"
33.2381,-96.7865,347,33.238799,-96.786515,0.99,rooftop,331,"N Hays Rd",,,Prosper,TX,"Collin County",75078,US,Plano
40.9629,-74.1329,348,40.962877,-74.132713,1,rooftop,181,"Rock Rd",,,"Glen Rock",NJ,"Bergen County",07452,US,"NJ Office of Information Technology (NJOIT), Office of Geographic Information Systems (OGIS)"
41.794,-87.7038,349,41.794027,-87.703784,1,rooftop,5444,"S Kedzie Ave",,,Chicago,IL,"Cook County",60632,US,Cook
41.5934,-87.3464,350,41.593091,-87.346481,0.99,rooftop,1044,"Harrison St",,,Gary,IN,"Lake County",46402,US,Lake
39.5523,-84.2333,351,39.552262,-84.233453,0.98,nearest_street,1,"E Factory Rd",,,Springboro,OH,"Warren County",45066,US,"TIGER/Line® dataset from the US Census Bureau"
33.9526,-84.5499,352,33.952744,-84.549624,1,rooftop,50,"N Park Sq",,,Marietta,GA,"Cobb County",30060,US,"City of Marietta"
41.6675,-86.1714,353,41.667498,-86.171571,1,rooftop,710,"Elm St",,,Mishawaka,IN,"St. Joseph County",46545,US,"Statewide IN"
46.7869,-92.0981,354,46.786934,-92.098473,1,rooftop,1,"W Superior St",,,Duluth,MN,"St. Louis County",55802,US,"St Louis"
35.0456,-85.3097,355,35.04561,-85.30954,1,rooftop,905,"Market St",,,Chattanooga,TN,"Hamilton County",37402,US,Hamilton
34.7294,-86.5845,356,34.729537,-86.584659,1,rooftop,112,"S Side Sq SE",,,Huntsville,AL,"Madison County",35801,US,"City of Huntsville"
47.6732,-117.2394,357,47.67414,-117.239429,0.99,nearest_street,,I-90,,,Spokane,WA,"Spokane County",99206,US,"TIGER/Line® dataset from the US Census Bureau"
31.9383,-81.3034,358,31.937724,-81.303417,0.99,rooftop,10872,Ave,,,"Richmond Hill",GA,"Bryan County",31324,US,Bryan
30.2841,-81.3961,359,30.284044,-81.396047,1,rooftop,320,"7th St S",,,"Jacksonville Beach",FL,"Duval County",32250,US,Duval
42.5292,-85.8553,360,42.528956,-85.85528,1,rooftop,215,"N Cedar St",,,Allegan,MI,"Allegan County",49010,US,Allegan
38.5015,-90.6499,361,38.503639,-90.649482,0.96,rooftop,1415,"W Main St",,,Eureka,MO,"St. Louis County",63025,US,"St Louis"
39.3641,-74.4231,362,39.363832,-74.423105,1,rooftop,1002,"Atlantic Ave",,,"Atlantic City",NJ,"Atlantic County",08401,US,"NJ Office of Information Technology (NJOIT), Office of Geographic Information Systems (OGIS)"
44.9181,-73.1243,363,44.918168,-73.123944,1,rooftop,31,"Grand Ave",,,Swanton,VT,"Franklin County",05488,US,"Statewide VT"
37.7395,-121.426,364,37.739227,-121.426335,0.99,rooftop,1035,"N Central Ave",,,Tracy,CA,"San Joaquin County",95376,US,"San Joaquin"
39.8726,-74.2951,365,39.885069,-74.287804,0.81,nearest_street,2011,"Lacey Rd",,,"Forked River",NJ,"Ocean County",08731,US,"TIGER/Line® dataset from the US Census Bureau"
42.4966,-96.4052,366,42.496623,-96.405357,1,rooftop,601,"Pierce St",,,"Sioux City",IA,"Woodbury County",51101,US,"Statewide IA"
43.4578,-88.8373,367,43.45754,-88.837388,1,rooftop,200,"N Spring St",,,"Beaver Dam",WI,"Dodge County",53916,US,Dodge
40.9488,-74.2403,368,40.948865,-74.240493,1,rooftop,14,"King Ct",,,Wayne,NJ,"Passaic County",07470,US,"NJ Office of Information Technology (NJOIT), Office of Geographic Information Systems (OGIS)"
36.4073,-105.5731,369,36.407336,-105.57307,1,rooftop,103,"Kit Carson Rd",,,Taos,NM,"Taos County",87571,US,"Statewide NM"
37.5841,-122.366,370,37.584247,-122.365722,1,rooftop,1461,Broadway,,,Burlingame,CA,"San Mateo County",94010,US,"San Mateo"
38.7746,-75.1394,371,38.774515,-75.139234,1,rooftop,212,"Savannah Rd",,,Lewes,DE,"Sussex County",19958,US,Sussex
47.2528,-122.4442,372,47.252663,-122.444052,1,rooftop,524,"S 11th St",,,Tacoma,WA,"Pierce County",98402,US,Pierce
38.3539,-121.9728,373,38.353891,-121.972575,1,rooftop,152,"Aegean Way",,,Vacaville,CA,"Solano County",95687,US,Solano
48.0517,-122.177,374,48.051562,-122.176371,0.99,rooftop,4,"4th St",,,Marysville,WA,"Snohomish County",98270,US,"Snohomish County"
39.7817,-89.6481,375,39.781796,-89.648398,0.97,nearest_street,600,"I-55 Bus",,,Springfield,IL,"Sangamon County",62703,US,"TIGER/Line® dataset from the US Census Bureau"
43.0125,-83.6875,376,43.012868,-83.687713,0.99,rooftop,815,"S Saginaw St",,,Flint,MI,"Genesee County",48502,US,Genesee
40.6058,-74.135,377,40.605771,-74.135075,1,rooftop,712,"Westwood Ave",,,"Staten Island",NY,"Richmond County",10314,US,"City of New York"
37.5388,-77.4336,378,37.538919,-77.433471,1,rooftop,1000,"Bank St",,,Richmond,VA,"Richmond City",23219,US,"City of Richmond"
39.1013,-94.5789,379,39.101274,-94.578821,1,rooftop,314,"E 11th St",,,"Kansas City",MO,"Jackson County",64106,US,"City of Kansas City"
39.0461,-76.0644,380,39.046118,-76.064311,1,rooftop,221,"N Commerce St",,,Centreville,MD,"Queen Anne's County",21617,US,"Statewide MD"
48.4123,-114.3347,381,48.412634,-114.334729,0.99,rooftop,9,"Spokane Ave",,,Whitefish,MT,"Flathead County",59937,US,"Montana State Library"
39.9537,-74.1979,382,39.953738,-74.197941,1,rooftop,207,"N Main St",,,"Toms River",NJ,"Ocean County",08753,US,"NJ Office of Information Technology (NJOIT), Office of Geographic Information Systems (OGIS)"
48.8465,-122.591,383,48.846419,-122.59107,1,rooftop,2021,"Main St",,,Ferndale,WA,"Whatcom County",98248,US,Bellingham
48.7595,-122.4882,384,48.759521,-122.488288,1,rooftop,1413,"Dupont St",,,Bellingham,WA,"Whatcom County",98225,US,Whatcom
34.1055,-117.5964,385,34.105496,-117.596406,1,rooftop,9570,"Hampshire St",,,"Rancho Cucamonga",CA,"San Bernardino County",91730,US,"City of Rancho Cucamonga"
46.2386,-119.1086,386,46.238552,-119.108295,1,rooftop,1200,"N 14tth Ave",,,Pasco,WA,"Franklin County",99301,US,"City of Pasco"
46.2113,-119.13720000000001,387,46.211303,-119.137167,0.99,nearest_street,133,"N Newport St",,,Kennewick,WA,"Benton County",99336,US,"TIGER/Line® dataset from the US Census Bureau"
39.0177,-94.6169,388,39.018047,-94.61708,0.99,rooftop,2700,"Verona Rd",,,"Mission Hills",KS,"Johnson County",66208,US,"Statewide KS"
48.4758,-122.3304,389,48.47605,-122.330371,1,rooftop,423,"Fairhaven Ave",,,Burlington,WA,"Skagit County",98233,US,Skagit
48.5038,-122.2361,390,48.503852,-122.235883,1,rooftop,820,"Puget St",,,"Sedro Woolley",WA,"Skagit County",98284,US,Skagit
48.42,-122.3261,391,48.419962,-122.326249,1,rooftop,200,"S 12th St",,,"Mount Vernon",WA,"Skagit County",98274,US,Skagit
48.5126,-122.6127,392,48.512352,-122.613006,0.99,rooftop,1202,"Commercial Ave",,,Anacortes,WA,"Skagit County",98221,US,Skagit
45.5608,-94.1625,393,45.561071,-94.162195,0.99,rooftop,705,"Courthouse Sq",,,"Saint Cloud",MN,"Stearns County",56303,US,Stearns
41.1415,-73.3579,394,41.141094,-73.357799,0.99,rooftop,224,"Post Rd E",,,Westport,CT,"Fairfield County",06880,US,"Connecticut Geospatial Information Systems Council"
36.9903,-86.4436,395,36.990403,-86.443561,1,rooftop,1116,"State St",,,"Bowling Green",KY,"Warren County",42101,US,Warren
46.3389,-117.0464,396,46.338949,-117.04575,0.96,nearest_street,207,"Adams St",,,Clarkston,WA,"Asotin County",99403,US,"TIGER/Line® dataset from the US Census Bureau"
30.5788,-97.8531,397,30.578712,-97.853085,1,rooftop,101,"N US 183",,,Leander,TX,"Williamson County",78641,US,Williamson
34.0577,-118.4553,398,34.058151,-118.454291,0.99,nearest_street,,I-405,,,"Los Angeles",CA,"Los Angeles County",90025,US,"TIGER/Line® dataset from the US Census Bureau"
33.4941,-111.926,399,33.494304,-111.925903,1,rooftop,4017,"N Scottsdale Rd",,,Scottsdale,AZ,"Maricopa County",85251,US,Maricopa
35.7915,-78.7811,400,35.791091,-78.78138,0.99,rooftop,419,"N Academy St",,,Cary,NC,"Wake County",27513,US,Cary
39.3317,-84.4072,401,39.331572,-84.407375,1,rooftop,8941,"Seminary St",,,"West Chester",OH,"Butler County",45069,US,Butler
40.0931,-83.018,402,40.093249,-83.01825,1,rooftop,923,"High St",,,Worthington,OH,"Franklin County",43085,US,Franklin
39.3884,-84.4538,403,39.388456,-84.4542,0.99,rooftop,6601,"Princeton Glendale Rd",,,"Liberty Twp",OH,"Butler County",45011,US,Butler
40.419,-80.5895,404,40.419616,-80.58868,0.98,rooftop,129,"City St",,,Weirton,WV,"Hancock County",26062,US,"Statewide WV"
36.9739,-122.0302,405,36.973611,-122.030304,0.99,rooftop,335,"Church St",,,"Santa Cruz",CA,"Santa Cruz County",95060,US,"City of Santa Cruz"
47.6739,-122.1215,406,47.67378,-122.121816,1,rooftop,16389,"Redmond Way",,,Redmond,WA,"King County",98052,US,King
40.5855,-122.3904,407,40.585432,-122.390404,1,rooftop,1325,"Tehama St",,,Redding,CA,"Shasta County",96001,US,Shasta
42.5084,-89.0318,408,42.508147,-89.031468,0.99,rooftop,963,"Pleasant St",,,Beloit,WI,"Rock County",53511,US,Rock
40.6662,-74.1935,409,40.664445,-74.194205,0.97,rooftop,706,"York St",,,Elizabeth,NJ,"Union County",07201,US,"NJ Office of Information Technology (NJOIT), Office of Geographic Information Systems (OGIS)"
40.7584,-82.5155,410,40.758447,-82.515657,1,rooftop,2,"S Main St",,,Mansfield,OH,"Richland County",44902,US,Richland
41.45,-87.47,411,41.449967,-87.47017,1,nearest_street,,"US 41",,,"Saint John",IN,"Lake County",46373,US,"TIGER/Line® dataset from the US Census Bureau"
43.642,-72.2524,412,43.642276,-72.25283,0.99,rooftop,20,"W Park St",,,Lebanon,NH,"Grafton County",03766,US,"Statewide NH"
37.9823,-120.3822,413,37.982305,-120.382363,1,rooftop,230,"Washington St S",,,Sonora,CA,"Tuolumne County",95370,US,Tuolumne
44.0216,-92.4699,414,44.021393,-92.47005,1,rooftop,207,"5th Ave SW",,,Rochester,MN,"Olmsted County",55902,US,Olmsted
41.1412,-73.2637,415,41.141311,-73.263858,1,rooftop,1828,"Post Rd",,,Fairfield,CT,"Fairfield County",06824,US,"Town of Fairfield"
41.9142,-88.3087,416,41.914248,-88.30817,0.99,rooftop,1,"S 6th Ave",,,"Saint Charles",IL,"Kane County",60174,US,Kane
42.4501,-89.0631,417,42.451204,-89.063175,0.98,rooftop,550,"E Main St",,,Rockton,IL,"Winnebago County",61072,US,Winnebago
40.7308,-73.7958,418,40.730812,-73.795791,1,rooftop,70-15,"174th St",,,"Fresh Meadows",NY,"Queens County",11365,US,"City of New York"
29.5636,-95.2861,419,29.563402,-95.286385,0.99,rooftop,2404,"Main St",,,Pearland,TX,"Brazoria County",77581,US,"Statewide TX"
34.8298,-82.6015,420,34.829842,-82.601729,1,rooftop,102,"Russell St",,,Easley,SC,"Pickens County",29640,US,"Pickens County"
38.0529,-81.104,421,38.05283,-81.104099,1,rooftop,107,Ct,,,Fayetteville,WV,"Fayette County",25840,US,"Statewide WV"
35.5643,-89.6465,422,35.564156,-89.646296,1,rooftop,1,"Liberty Ave W",,,Covington,TN,"Tipton County",38019,US,"Statewide TN"
38.9989,-84.6266,423,38.998868,-84.626007,0.99,rooftop,7201,"Dixie Hwy",,,Florence,KY,"Boone County",41042,US,Boone
39.0837,-84.5086,424,39.083743,-84.508674,1,rooftop,641,"Scott St",,,Covington,KY,"Kenton County",41011,US,Kenton
43.1536,-93.2016,425,43.153481,-93.201668,1,rooftop,11,"2nd St NW",,,"Mason City",IA,"Cerro Gordo County",50401,US,"Statewide IA"
38.0405,-84.5043,426,38.040348,-84.50376,0.99,rooftop,404,"Administration Dr",,,Lexington,KY,"Fayette County",40508,US,"Lexington Fayette"
32.2217,-110.9264,427,32.221965,-110.926284,1,rooftop,3131,"E Broadway Blvd",,,Tucson,AZ,"Pima County",85716,US,Pima
41.6106,-87.0642,428,41.61067,-87.06453,1,rooftop,138,"S 9th St",,,Chesterton,IN,"Porter County",46304,US,Porter
44.4259,-69.0064,429,44.425897,-69.006414,1,rooftop,132,"High St",,,Belfast,ME,"Waldo County",04915,US,"Maine Office of GIS"
40.0456,-86.0086,430,40.045868,-86.008571,1,rooftop,1308,"Conner St",,,Noblesville,IN,"Hamilton County",46060,US,Hamilton
34.1336,-117.9076,431,34.133772,-117.907252,0.99,rooftop,700,"N Azusa Ave",,,Azusa,CA,"Los Angeles County",91702,US,"Los Angeles"
45.8167,-120.8167,432,45.816735,-120.81753,0.96,nearest_street,849,"Schuster Ave",,,Goldendale,WA,"Klickitat County",98620,US,"TIGER/Line® dataset from the US Census Bureau"
41.142,-87.8612,433,41.141612,-87.86068,0.99,rooftop,285,"S Schuyler Ave",,,Bradley,IL,"Kankakee County",60915,US,Kankakee
41.9164,-83.3977,434,41.916342,-83.397919,1,rooftop,34,"S Monroe St",,,Monroe,MI,"Monroe County",48161,US,Semcog
44.292,-121.5533,435,44.291908,-121.553133,1,rooftop,341,"Main Ave",,,Sisters,OR,"Deschutes County",97759,US,Deschutes
39.0184,-84.5818,436,39.018384,-84.58142,0.99,rooftop,83,"Beech Dr",,,Edgewood,KY,"Kenton County",41017,US,Kenton
36.7373,-119.7857,437,36.73751,-119.785648,1,rooftop,2405,"Tulare St",,,Fresno,CA,"Fresno County",93721,US,Fresno
40.0395,-84.2033,438,40.039315,-84.203873,0.99,rooftop,4,"Market St S",,,Troy,OH,"Miami County",45373,US,Miami
32.2986,-90.1863,439,32.298714,-90.186424,1,rooftop,201,"S Lamar St",,,Jackson,MS,"Hinds County",39201,US,Hinds
43.4666,-112.0341,440,43.466726,-112.034011,1,rooftop,117,"W Stone Run Ln",,,"Idaho Falls",ID,"Bonneville County",83404,US,Bonneville
41.8861,-87.7841,441,41.886056,-87.784308,1,rooftop,120,"S Ridgeland Ave",,,"Oak Park",IL,"Cook County",60302,US,Cook
42.2411,-88.3162,442,42.241417,-88.316801,0.99,rooftop,90,"Brink St",,,"Crystal Lake",IL,"McHenry County",60014,US,Mchenry
34.1954,-82.1618,443,34.195482,-82.161802,1,rooftop,101,"Grace St",,,Greenwood,SC,"Greenwood County",29649,US,Greenwood
34.9496,-81.9321,444,34.949287,-81.931969,0.99,rooftop,113,"W Main St",,,Spartanburg,SC,"Spartanburg County",29306,US,"City of Spartanburg"
31.0982,-97.343,445,31.097951,-97.343162,1,rooftop,18,"N 3rd St",,,Temple,TX,"Bell County",76501,US,"Statewide TX"
33.8855,-117.9286,446,33.885512,-117.928794,1,rooftop,1439,"Sunny Crest Dr",,,Fullerton,CA,"Orange County",92835,US,"City of Fullerton"
39.7686,-86.158,447,39.768521,-86.158031,1,rooftop,1,"Monument Cir",,,Indianapolis,IN,"Marion County",46204,US,"Statewide IN"
46.602,-120.505,448,46.602129,-120.504943,1,rooftop,118,"E Yakima Ave",,,Yakima,WA,"Yakima County",98901,US,Yakima
34.0584,-106.8914,449,34.058634,-106.891505,1,rooftop,200,"N California St",,,Socorro,NM,"Socorro County",87801,US,"Statewide NM"
32.8406,-83.6324,450,32.840695,-83.632164,1,rooftop,889,"Mulberry St",,,Macon,GA,"Bibb County",31201,US,Macon
30.3582,-90.0656,451,30.358327,-90.065712,1,rooftop,2016,"Monroe St",,,Mandeville,LA,"St. Tammany Parish",70448,US,"St Tammany Parish"
42.5612,-71.5898,452,42.561245,-71.589463,1,rooftop,28,"West St",,,Ayer,MA,"Middlesex County",01432,US,"Office of Geographic Information (MassGIS), Commonwealth of Massachusetts, MassIT"
34.2819,-118.4389,453,34.281832,-118.438862,1,rooftop,801,"Truman St",,,"San Fernando",CA,"Los Angeles County",91340,US,"Los Angeles"
61.218,-149.9002,454,61.218112,-149.89952,0.99,rooftop,453,"I St",,,Anchorage,AK,"Anchorage Municipality",99501,US,Anchorage
44.1538,-87.5701,455,44.153807,-87.570254,1,rooftop,1600,"22nd St",,,"Two Rivers",WI,"Manitowoc County",54241,US,Manitowoc
42.2012,-85.58,456,42.200994,-85.579548,0.97,nearest_street,900,"E Centre Ave",,,Portage,MI,"Kalamazoo County",49002,US,"TIGER/Line® dataset from the US Census Bureau"
34.3582,-86.2945,457,34.358242,-86.294466,1,nearest_street,,"US 431",,,"Fort Payne",AL,"Marshall County",35967,US,"TIGER/Line® dataset from the US Census Bureau"
33.7459,-117.8262,458,33.74601,-117.826263,1,rooftop,305,"W 1st St",,,Tustin,CA,"Orange County",92780,US,Orange
43.0495,-88.0076,459,43.04956,-88.007582,1,rooftop,7613,"Harwood Ave",,,Milwaukee,WI,"Milwaukee County",53213,US,Milwaukee
42.9634,-85.6681,460,42.963385,-85.667674,0.99,rooftop,3,"Fulton St E",,,"Grand Rapids",MI,"Kent County",49503,US,Kent
38.7819,-90.4881,461,38.781955,-90.488277,1,rooftop,550,"1st Capitol Dr",,,"Saint Charles",MO,"St. Charles County",63301,US,"St Charles"
41.3082,-72.9279,462,41.308334,-72.92813,1,rooftop,206,"Elm St",,,"New Haven",CT,"New Haven County",06511,US,"Connecticut Geospatial Information Systems Council"
36.6673,-88.9934,463,36.66706,-88.993622,0.97,nearest_street,205,"State Hwy 123",,,Clinton,KY,"Hickman County",42031,US,"TIGER/Line® dataset from the US Census Bureau"
25.8632,-80.1928,464,25.863289,-80.192401,0.99,rooftop,250,"NE 96th St",,,"Miami Shores",FL,"Miami-Dade County",33138,US,Miami
40.4233,-104.7091,465,40.423285,-104.708896,1,rooftop,920,"19th Ave",,,Greeley,CO,"Weld County",80631,US,"City of Greeley"
38.3242,-85.4724,466,38.323748,-85.472617,0.99,rooftop,6413,"Railroad Ave",,,Crestwood,KY,"Oldham County",40014,US,Oldham
40.4842,-88.9937,467,40.484325,-88.993475,1,rooftop,615,"N Main St",,,Bloomington,IL,"McLean County",61701,US,Mclean
39.2014,-85.9214,468,39.201405,-85.921013,0.97,nearest_street,300,"Washington St",,,Columbus,IN,"Bartholomew County",47201,US,"TIGER/Line® dataset from the US Census Bureau"
34.3893,-118.5484,469,34.389223,-118.548994,0.99,rooftop,23701,"Sarda Rd",,,Valencia,CA,"Los Angeles County",91355,US,"Los Angeles"
45.4914,-122.5932,470,45.491506,-122.593106,1,rooftop,6810,"SE Cora St",,,Portland,OR,"Multnomah County",97206,US,Multnomah
20.8913,-156.506,471,20.891218,-156.506008,1,rooftop,275,"Makua St",,,Wailuku,HI,"Maui County",96793,US,Maui
40.5861,-98.3884,472,40.585967,-98.388186,1,rooftop,521,"W 3rd St",,,Hastings,NE,"Adams County",68901,US,Adams
35.781,-78.6392,473,35.78041,-78.639094,0.99,rooftop,1,"E Edenton St",,,Raleigh,NC,"Wake County",27601,US,Wake
33.2468,-84.2641,474,33.247132,-84.264085,1,nearest_street,,"US 41 Business",,,Griffin,GA,"Spalding County",30223,US,"TIGER/Line® dataset from the US Census Bureau"
40.0379,-76.3055,475,40.037692,-76.305218,0.99,rooftop,3,"Penn Sq",,,Lancaster,PA,"Lancaster County",17602,US,Lancaster
47.4829,-122.2171,476,47.482771,-122.216877,1,rooftop,104,"Rainier Ave S",,,Renton,WA,"King County",98057,US,King
40.3934,-82.4857,477,40.3931,-82.48583,0.99,rooftop,1,"S Main St",,,"Mount Vernon",OH,"Knox County",43050,US,Knox
25.9018,-97.4981,478,25.901718,-97.497418,0.96,nearest_street,600,"E 12th St",,,Brownsville,TX,"Cameron County",78520,US,"TIGER/Line® dataset from the US Census Bureau"
33.2,-117.2425,479,33.200328,-117.242072,0.99,rooftop,230,"S Santa Fe Ave",,,Vista,CA,"San Diego County",92084,US,Sandoval
39.5296,-119.8138,480,39.529562,-119.813882,1,rooftop,346,"N Virginia St",,,Reno,NV,"Washoe County",89501,US,Washoe
41.6023,-71.2503,481,41.602461,-71.250336,1,rooftop,69,"Turnpike Ave",,,Portsmouth,RI,"Newport County",02871,US,"Statewide RI"
36.2082,-115.9839,482,36.208069,-115.983777,1,rooftop,820,"S Nevada Highway 160",,,Pahrump,NV,"Nye County",89048,US,Nye
39.6895,-84.1688,483,39.689296,-84.169119,0.99,rooftop,4001,"Far Hills Ave",,,Dayton,OH,"Montgomery County",45429,US,Montgomery
43.775,-88.4388,484,43.774966,-88.438881,1,rooftop,133,"S Park Ave",,,"Fond Du Lac",WI,"Fond Du Lac County",54935,US,"Fond Du Lac"
39.4667,-87.4139,485,39.466481,-87.413867,1,nearest_street,,"US 150",,,"Terre Haute",IN,"Vigo County",47807,US,"TIGER/Line® dataset from the US Census Bureau"
41.5111,-87.9658,486,41.51124,-87.966083,1,rooftop,115,"S Cedar Rd",,,"New Lenox",IL,"Will County",60451,US,Will
39.6411,-84.2813,487,39.641259,-84.281386,1,rooftop,604,"E Central Ave",,,Miamisburg,OH,"Montgomery County",45342,US,Montgomery
36.1128,-89.2617,488,36.113288,-89.261945,0.99,rooftop,230,"Main St E",,,Newbern,TN,"Dyer County",38059,US,"Statewide TN"
33.7583,-118.3642,489,33.758295,-118.364451,1,rooftop,26,"Oceanaire Dr",,,"Rancho Palos Verdes",CA,"Los Angeles County",90275,US,"Los Angeles"
38.3929,-120.8024,490,38.392856,-120.80234,1,rooftop,16,"Eureka St",,,"Sutter Creek",CA,"Amador County",95685,US,Amador
43.9179,-123.0245,491,43.918002,-123.024661,1,rooftop,518,"W Oregon Ave",,,Creswell,OR,"Lane County",97426,US,Lane
32.2732,-89.9859,492,32.272894,-89.986056,0.99,rooftop,200,"E Government St",,,Brandon,MS,"Rankin County",39042,US,Rankin
47.1853,-122.2929,493,47.185242,-122.293874,0.99,rooftop,800,"S Meridian",,,Puyallup,WA,"Pierce County",98371,US,Pierce
42.4926,-92.3433,494,42.492892,-92.34325,0.99,rooftop,524,"Washington St",,,"Cedar Falls",IA,"Black Hawk County",50613,US,"Statewide IA"
40.7426,-84.1052,495,40.742569,-84.105177,1,rooftop,243,"N Main St",,,Lima,OH,"Allen County",45801,US,Allen
39.2998,-75.6046,496,39.299809,-75.604364,1,rooftop,100,"S Main St",,,Smyrna,DE,"Kent County",19977,US,Kent
39.507,-84.7452,497,39.507174,-84.745199,1,rooftop,123,"W Spring St",,,Oxford,OH,"Butler County",45056,US,Butler
35.9251,-86.8689,498,35.925102,-86.869465,0.99,rooftop,320,"Main St",,,Franklin,TN,"Williamson County",37064,US,Franklin
43.1124,-83.6176,499,43.112283,-83.617301,1,rooftop,7226,"N Genesee Rd",,,Genesee,MI,"Genesee County",48437,US,Genesee
41.7175,-87.677,500,41.717523,-87.676826,1,rooftop,9657,"S Leavitt St",,,Chicago,IL,"Cook County",60643,US,Cook
34.1425,-109.9603,501,34.142612,-109.960327,1,rooftop,503,"Summer Haven Ln",,,Lakeside,AZ,"Navajo County",85929,US,"Statewide AZ"
45.1403,-89.1523,502,45.14024,-89.152159,1,rooftop,535,"Superior St",,,Antigo,WI,"Langlade County",54409,US,"Statewide WI"
41.9827,-87.7292,503,41.982949,-87.729367,1,rooftop,5601,"N Keystone Ave",,,Chicago,IL,"Cook County",60646,US,Cook
39.1634,-119.7649,504,39.163905,-119.764995,0.99,rooftop,100,"N Stewart St",,,"Carson City",NV,"Carson City",89701,US,"Carson City"
40.5852,-105.0849,505,40.585163,-105.084844,1,rooftop,209,"S Sherwood St",,,"Fort Collins",CO,"Larimer County",80521,US,"City of Fort Collins"
29.8946,-81.3145,506,29.89456,-81.31456,1,rooftop,49,"Cordova St",,,"Saint Augustine",FL,"St. Johns County",32084,US,Statewide2
38.8818,-78.5058,507,38.881866,-78.505882,1,rooftop,102,"S Main St",,,Woodstock,VA,"Shenandoah County",22664,US,Shenandoah
34.181,-118.313,508,34.180891,-118.312739,1,rooftop,53,"E Palm Ave",,,Burbank,CA,"Los Angeles County",91502,US,"City of Burbank"
44.0886,-87.6576,509,44.088603,-87.65753,1,rooftop,1001,"S 8th St",,,Manitowoc,WI,"Manitowoc County",54220,US,"Statewide WI"
32.5185,-92.1476,510,32.51829,-92.147719,0.97,nearest_street,2701,"US Hwy 80",,,"West Monroe",LA,"Ouachita Parish",71291,US,"TIGER/Line® dataset from the US Census Bureau"
44.9193,-123.3171,511,44.919168,-123.317515,0.99,rooftop,141,"SW Washington St",,,Dallas,OR,"Polk County",97338,US,"Marion And Polk"
42.2626,-71.8023,512,42.262561,-71.801959,1,rooftop,455,"Main St",,,Worcester,MA,"Worcester County",01608,US,"Office of Geographic Information (MassGIS), Commonwealth of Massachusetts, MassIT"
40.5887,-83.1285,513,40.588527,-83.128409,1,rooftop,117,"E Center St",,,Marion,OH,"Marion County",43302,US,Marion
28.6775,-99.8281,514,28.677531,-99.82783,1,rooftop,103,"E Zavala St",,,"Crystal City",TX,"Zavala County",78839,US,"Statewide TX"
37.2355,-121.9628,515,37.235239,-121.962768,1,rooftop,700,"Blossom Hill Rd",,,"Los Gatos",CA,"Santa Clara County",95032,US,"Santa Clara"
42.7628,-71.4739,516,42.762081,-71.474828,0.98,rooftop,10-88,"Technology Way",,,Nashua,NH,"Hillsborough County",03060,US,"City of Nashua"
36.8529,-75.978,517,36.852765,-75.977789,1,rooftop,2412,"Pacific Ave",,,"Virginia Beach",VA,"Virginia Beach City",23451,US,"Virginia Beach"
36.3297,-119.2918,518,36.329598,-119.291997,1,rooftop,116,"S Court St",,,Visalia,CA,"Tulare County",93291,US,Tulare
40.3201,-75.6102,519,40.320024,-75.610117,1,rooftop,1339,"E Philadelphia Ave",,,Gilbertsville,PA,"Montgomery County",19525,US,Montgomery
39.7294,-104.8319,520,39.729244,-104.831905,1,rooftop,885,"Vaughn St",,,Aurora,CO,"Arapahoe County",80011,US,"Statewide CO"
42.386,-82.9121,521,42.385844,-82.912113,1,rooftop,17150,"Maumee Ave",,,"Grosse Pointe",MI,"Wayne County",48230,US,Wayne
26.2031,-98.2302,522,26.203175,-98.230406,1,rooftop,1001,"Hwy 83",,,McAllen,TX,"Hidalgo County",78501,US,"Hidalgo County"
40.0992,-83.1141,523,40.099315,-83.113993,1,rooftop,5,"W Bridge St",,,Dublin,OH,"Franklin County",43017,US,Franklin
38.2302,-90.4152,524,38.230365,-90.414972,1,rooftop,31,"Ivy Ln",,,Festus,MO,"Jefferson County",63028,US,Jefferson
39.3581,-84.3119,525,39.358134,-84.311953,1,rooftop,211,"Short St",,,Mason,OH,"Warren County",45040,US,Hamilton
40.3942,-74.117,526,40.393709,-74.116827,0.99,rooftop,84,"Kings Hwy",,,Middletown,NJ,"Monmouth County",07748,US,"NJ Office of Information Technology (NJOIT), Office of Geographic Information Systems (OGIS)"
26.6216,-81.8405,527,26.621704,-81.840666,1,rooftop,3641,"Ironbridge Blvd",,,"Fort Myers",FL,"Lee County",33916,US,Statewide2
33.7877,-117.8534,528,33.787429,-117.853413,1,rooftop,36,"Plaza Sq",,,Orange,CA,"Orange County",92866,US,"City of Orange"
37.7742,-87.1133,529,37.77405,-87.11289,0.99,rooftop,212,"St Ann St",,,Owensboro,KY,"Daviess County",42303,US,"City of Owensboro"
34.2309,-111.3251,530,34.231021,-111.324896,1,nearest_street,,"AZ 87",,,Payson,AZ,"Gila County",85541,US,"TIGER/Line® dataset from the US Census Bureau"
38.0492,-87.2742,531,38.049563,-87.274948,0.99,rooftop,107,"W Locust St",,,Boonville,IN,"Warrick County",47601,US,"Statewide IN"
31.5688,-93.4841,532,31.568819,-93.48416,0.99,nearest_street,725,"Sabine St",,,Many,LA,"Sabine Parish",71449,US,"TIGER/Line® dataset from the US Census Bureau"
41.7552,-124.2042,533,41.755535,-124.203545,0.99,rooftop,933,"F St",,,"Crescent City",CA,"Del Norte County",95531,US,"Del Norte"
37.2165,-80.2325,534,37.216568,-80.232372,1,rooftop,9210,"Roanoke Rd",,,Elliston,VA,"Montgomery County",24087,US,"Virginia Geographic Information Network (VGIN)"
39.7284,-121.8374,535,39.728357,-121.837415,1,rooftop,161,"E 5th St",,,Chico,CA,"Butte County",95928,US,Butte
38.7438,-90.305,536,38.743821,-90.305013,1,rooftop,15,"S Florissant Rd",,,"Saint Louis",MO,"St. Louis County",63135,US,"St Louis"
33.9859,-117.3534,537,33.986872,-117.353591,0.98,rooftop,2880,"Hulen Pl",,,Riverside,CA,"Riverside County",92507,US,Riverside
42.0987,-75.918,538,42.09863,-75.918087,1,rooftop,21,"Main St",,,Binghamton,NY,"Broome County",13905,US,"NYS GIS Program Office, State Geographic Information Officer (GIO)"
35.3849,-77.9928,539,35.385231,-77.993142,0.99,rooftop,207,"E Ash St",,,Goldsboro,NC,"Wayne County",27530,US,Wayne
44.3353,-85.2151,540,44.335578,-85.214722,0.97,nearest_street,200,"State Hwy 55",,,"Lake City",MI,"Missaukee County",49651,US,"TIGER/Line® dataset from the US Census Bureau"
35.2924,-81.5357,541,35.292226,-81.535299,0.99,rooftop,319,"E Marion St",,,Shelby,NC,"Cleveland County",28150,US,Cleveland
38.9716,-95.2359,542,38.971625,-95.235652,1,rooftop,642,"Massachusetts St",,,Lawrence,KS,"Douglas County",66044,US,"City of Lawrence"
41.1564,-80.569,543,41.156288,-80.569143,1,rooftop,3,"W Liberty St",,,Hubbard,OH,"Trumbull County",44425,US,Trumbull
21.6172,-158.0873,544,21.617031,-158.087155,1,rooftop,61-635,"Kam Hwy",,,Haleiwa,HI,"Honolulu County",96712,US,Honolulu
40.8657,-73.5321,545,40.86575,-73.532099,1,rooftop,13,"Berry Hill Rd",,,"Oyster Bay",NY,"Nassau County",11771,US,"NYS GIS Program Office, State Geographic Information Officer (GIO)"
36.0626,-94.1574,546,36.062606,-94.157645,1,rooftop,4,"S College Ave",,,Fayetteville,AR,"Washington County",72701,US,"City of Fayetteville"
39.6113,-87.6958,547,39.611202,-87.695608,0.98,nearest_street,102,"W Court St",,,Paris,IL,"Edgar County",61944,US,"TIGER/Line® dataset from the US Census Bureau"
34.0483,-117.2611,548,34.048617,-117.260738,0.99,rooftop,24914,"Barton Rd",,,"Loma Linda",CA,"San Bernardino County",92354,US,"San Bernardino"
30.7428,-87.7933,549,30.742894,-87.793413,1,nearest_street,,"US 31",,,Stapleton,AL,"Baldwin County",36578,US,"TIGER/Line® dataset from the US Census Bureau"
40.7142,-74.0059,550,40.714367,-74.005962,1,rooftop,280,Broadway,,,"New York",NY,"New York County",10007,US,"City of New York"
44.9531,-92.9938,551,44.952497,-92.994157,0.99,rooftop,2501,"Hudson Rd E",,,"Saint Paul",MN,"Ramsey County",55144,US,Ramsey
30.7266,-90.509,552,30.726475,-90.509304,0.99,rooftop,101,"W Oak St",,,Amite,LA,"Tangipahoa Parish",70422,US,Tangipahoa
28.2442,-82.7193,553,28.24422,-82.719287,1,rooftop,5830,"Grand Blvd",,,"New Port Richey",FL,"Pasco County",34652,US,Pasco
41.722,-87.5869,554,41.721628,-87.586628,0.99,rooftop,1455,"E 95th St",,,Chicago,IL,"Cook County",60619,US,"City of Chicago"
40.2842,-84.1555,555,40.284272,-84.155463,1,rooftop,127,"E Court St",,,Sidney,OH,"Shelby County",45365,US,Shelby
38.1499,-79.0732,556,38.149756,-79.073197,1,rooftop,15,"W Beverley St",,,Staunton,VA,"Staunton City",24401,US,"Virginia Geographic Information Network (VGIN)"
40.5675,-89.6407,557,40.567366,-89.641307,0.99,rooftop,711,"Court St",,,Pekin,IL,"Tazewell County",61554,US,Tazewell
45.4982,-122.4315,558,45.49806,-122.431492,1,rooftop,"29 E/","W Powell Blvd",,,Gresham,OR,"Multnomah County",97030,US,Multnomah
25.942,-80.2456,559,25.9419,-80.24545,1,rooftop,18400,"NW 27th Ave",,,"Miami Gardens",FL,"Miami-Dade County",33056,US,Statewide2
34.1321,-84.3006,560,34.132816,-84.300251,0.99,rooftop,14485,"Thompson Rd",,,Alpharetta,GA,"Fulton County",30004,US,Fulton
32.3763,-86.3095,561,32.376248,-86.309287,1,rooftop,128,"Lee St",,,Montgomery,AL,"Montgomery County",36104,US,Montgomery
36.0104,-84.2696,562,36.009317,-84.269115,0.98,rooftop,102,"S Illinois Ave",,,"Oak Ridge",TN,"Anderson County",37830,US,"Statewide TN"
41.6054,-73.1187,563,41.605318,-73.118913,1,rooftop,37,"Deforest St",,,Watertown,CT,"Litchfield County",06795,US,"Connecticut Geospatial Information Systems Council"
42.7339,-84.5555,564,42.733595,-84.555461,0.99,rooftop,100,"S Capitol Ave",,,Lansing,MI,"Ingham County",48933,US,Ingham
47.3494,-95.1831,565,47.347183,-95.182801,0.82,nearest_street,9700,"County Rd 9",,,Solway,MN,"Hubbard County",56678,US,"TIGER/Line® dataset from the US Census Bureau"
39.6787,-75.7554,566,39.678644,-75.755431,1,rooftop,47,"Kent Way",,,Newark,DE,"New Castle County",19711,US,"City of Newark"
45.5234,-122.6762,567,45.523369,-122.676187,1,rooftop,10,"NW 6th Ave",,,Portland,OR,"Multnomah County",97209,US,"Portland Metro"
31.7617,-106.4846,568,31.761685,-106.484205,0.99,rooftop,216,"Florence St",,,"El Paso",TX,"El Paso County",79901,US,"Statewide TX"
35.1464,-90.1845,569,35.146313,-90.184368,1,rooftop,113,"E Broadway Ave",,,"West Memphis",AR,"Crittenden County",72301,US,"Arkansas Geographic Information Office"
29.6191,-95.6332,570,29.619423,-95.632946,0.99,rooftop,110,"Bay View Dr",,,"Sugar Land",TX,"Fort Bend County",77478,US,"Fort Bend"
33.4269,-117.6124,571,33.426984,-117.61246,1,rooftop,120,"S El Camino Real",,,"San Clemente",CA,"Orange County",92672,US,Orange
32.6781,-117.0992,572,32.678141,-117.099436,1,rooftop,717,"E 8th St",,,"National City",CA,"San Diego County",91950,US,"San Diego Geographic Information Source - JPA"
38.8523,-77.0372,573,38.852342,-77.052472,0.82,nearest_street,2301,"US Hwy 1",,,Arlington,VA,"Arlington County",22202,US,"TIGER/Line® dataset from the US Census Bureau"
37.271,-79.9414,574,37.271049,-79.941311,1,rooftop,16,"Kirk Ave SW",,,Roanoke,VA,"Roanoke City",24011,US,"Virginia Geographic Information Network (VGIN)"
35.5849,-80.8101,575,35.585031,-80.809719,0.99,rooftop,314,"N Main St",,,Mooresville,NC,"Iredell County",28115,US,Iredell
40.4278,-74.4159,576,40.427741,-74.41577,1,rooftop,7,"Dexter Rd",,,"East Brunswick",NJ,"Middlesex County",08816,US,"NJ Office of Information Technology (NJOIT), Office of Geographic Information Systems (OGIS)"
34.0603,-118.2059,577,34.06002,-118.2063,0.99,rooftop,2000,"E Zonal Ave",,,"Los Angeles",CA,"Los Angeles County",90033,US,"City of Los Angeles"
30.0861,-94.1019,578,30.086219,-94.102076,1,rooftop,505,"Willow St",,,Beaumont,TX,"Jefferson County",77701,US,"Statewide TX"
41.2505,-87.8441,579,41.250753,-87.843975,1,rooftop,545,"W Division St",,,Manteno,IL,"Kankakee County",60950,US,Kankakee
38.9805,-76.9366,580,38.980298,-76.936501,1,rooftop,4511,"Knox Rd",,,"College Park",MD,"Prince George's County",20740,US,"Prince Georges"
38.2856,-85.8241,581,38.285407,-85.824328,1,rooftop,101,"W Spring St",,,"New Albany",IN,"Floyd County",47150,US,"Statewide IN"
30.4755,-90.1004,582,30.475507,-90.100282,1,rooftop,112,"N Jefferson Ave",,,Covington,LA,"St. Tammany Parish",70433,US,"St Tammany Parish"
36.3273,-119.6459,583,36.327316,-119.64615,1,rooftop,218,"N Douty St",,,Hanford,CA,"Kings County",93230,US,Kings
34.7464,-92.2879,584,34.745906,-92.287523,0.99,rooftop,501,"Woodlane St",,,"Little Rock",AR,"Pulaski County",72201,US,"Arkansas Geographic Information Office"
41.0962,-73.7934,585,41.096055,-73.793496,1,rooftop,2,"W Stevens Ave",,,Hawthorne,NY,"Westchester County",10532,US,"NYS GIS Program Office, State Geographic Information Officer (GIO)"
32.5843,-117.1161,586,32.584531,-117.116361,0.99,rooftop,740,"Palm Ave",,,"Imperial Beach",CA,"San Diego County",91932,US,"San Diego Geographic Information Source - JPA"
34.0004,-81.0332,587,34.001283,-81.033535,0.95,nearest_street,1200,"Main St",,,Columbia,SC,"Richland County",29201,US,"TIGER/Line® dataset from the US Census Bureau"
43.4753,-110.7692,588,43.475251,-110.769236,1,rooftop,455,"W Karns Ave",,,Jackson,WY,"Teton County",83001,US,"Statewide WY"
30.5021,-90.7479,589,30.502079,-90.748098,1,rooftop,20303,"Circle Dr",,,Livingston,LA,"Livingston Parish",70754,US,Livingston
31.6041,-89.1956,590,31.604089,-89.19597,0.97,nearest_street,198,"Ivy St",,,Ellisville,MS,"Jones County",39437,US,"TIGER/Line® dataset from the US Census Bureau"
33.7515,-84.7477,591,33.751385,-84.74764,1,rooftop,6650,"Broad St",,,Douglasville,GA,"Douglas County",30134,US,Douglas
39.4143,-77.4105,592,39.414274,-77.410512,1,rooftop,7,"E Patrick St",,,Frederick,MD,"Frederick County",21701,US,Frederick
40.7742,-74.0241,593,40.774254,-74.024163,1,rooftop,3804,"Palisade Ave",,,"Union City",NJ,"Hudson County",07087,US,"NJ Office of Information Technology (NJOIT), Office of Geographic Information Systems (OGIS)"
40.9602,-73.755,594,40.960912,-73.753042,0.97,rooftop,851,"Fenimore Rd",,,Mamaroneck,NY,"Westchester County",10543,US,Westchester
39.9257,-75.1193,595,39.925989,-75.118673,0.99,rooftop,1542,"Broadway Turnpike",,,Camden,NJ,"Camden County",08104,US,"NJ Office of Information Technology (NJOIT), Office of Geographic Information Systems (OGIS)"
44.052,-123.0867,596,44.051712,-123.086038,0.99,rooftop,405,"E 8th Ave",,,Eugene,OR,"Lane County",97401,US,Lane
33.2556,-87.3208,597,33.255622,-87.320837,1,rooftop,15893,Hw,,,Brookwood,AL,"Tuscaloosa County",35444,US,Tuscaloosa
37.694,-85.8591,598,37.694034,-85.859061,1,rooftop,103,"N Mulberry St",,,Elizabethtown,KY,"Hardin County",42701,US,Hardin
39.7047,-105.0813,599,39.704862,-105.080612,0.99,rooftop,650,"S Wadsworth Blvd",,,Lakewood,CO,"Jefferson County",80226,US,Jefferson
34.2436,-116.9136,600,34.243458,-116.913489,1,rooftop,40717,"Big Bear Blvd",,,"Big Bear Lake",CA,"San Bernardino County",92315,US,"San Bernardino"
33.7748,-84.2963,601,33.774402,-84.29615,0.99,rooftop,111,"Sycamore St",,,Decatur,GA,"Dekalb County",30030,US,Dekalb
47.5317,-122.6383,602,47.531685,-122.638229,1,rooftop,1122,"Spokane Ave",,,"Port Orchard",WA,"Kitsap County",98366,US,Kitsap
41.2254,-73.0578,603,41.225246,-73.057758,1,rooftop,110,"River St",,,Milford,CT,"New Haven County",06460,US,"Connecticut Geospatial Information Systems Council"
28.3039,-81.4128,604,28.304012,-81.412721,1,rooftop,816,"W Vine St",,,Kissimmee,FL,"Osceola County",34741,US,"MapWise (and individual Florida counties)"
34.4048,-103.2052,605,34.404499,-103.204855,0.99,rooftop,621,"N Main St",,,Clovis,NM,"Curry County",88101,US,"Statewide NM"
42.0834,-71.3967,606,42.083331,-71.396239,0.99,rooftop,25,"Depot St",,,Franklin,MA,"Norfolk County",02038,US,"Office of Geographic Information (MassGIS), Commonwealth of Massachusetts, MassIT"
37.8216,-121.998,607,37.821457,-121.99792,1,rooftop,201,"Front St",,,Danville,CA,"Contra Costa County",94526,US,"Contra Costa"
41.4991,-72.4498,608,41.498775,-72.450307,0.99,rooftop,1,"Plains Rd",,,Moodus,CT,"Middlesex County",06469,US,"Connecticut Geospatial Information Systems Council"
41.7355,-122.6345,609,41.735566,-122.63482,1,rooftop,415,"N Main St",,,Yreka,CA,"Siskiyou County",96097,US,Siskiyou
30.5881,-84.5913,610,30.58803,-84.591301,1,rooftop,1201,"W Jefferson St",,,Quincy,FL,"Gadsden County",32351,US,Statewide2
44.0537,-122.981,611,44.053114,-122.981065,0.99,rooftop,317,"30th St",,,Springfield,OR,"Lane County",97478,US,Lane
27.5038,-99.5075,612,27.50377,-99.507324,1,rooftop,405,"Convent Ave",,,Laredo,TX,"Webb County",78040,US,"Statewide TX"
33.4718,-86.8008,613,33.471824,-86.800939,1,rooftop,1526,"Roseland Dr",,,Birmingham,AL,"Jefferson County",35209,US,Jefferson
34.086,-81.1832,614,34.085978,-81.183001,1,rooftop,1265,"Lake Murray Blvd",,,Irmo,SC,"Lexington County",29063,US,Lexington
41.6718,-72.9493,615,41.671626,-72.949029,1,rooftop,171,"School St",,,Bristol,CT,"Hartford County",06010,US,"Connecticut Geospatial Information Systems Council"
33.9671,-118.2433,616,33.967251,-118.243465,1,rooftop,1658,"Nadeau St",,,"Los Angeles",CA,"Los Angeles County",90001,US,"Los Angeles"
38.312,-84.0274,617,38.312137,-84.027669,0.97,nearest_street,201,"State Hwy 32",,,Carlisle,KY,"Nicholas County",40311,US,"TIGER/Line® dataset from the US Census Bureau"
41.5387,-74.0632,618,41.53832,-74.062546,0.99,rooftop,1561,"State Rte 300",,,Newburgh,NY,"Orange County",12550,US,Orange
37.7306,-88.9331,619,37.730571,-88.93329,1,rooftop,805,"W Main St",,,Marion,IL,"Williamson County",62959,US,Williamson
40.116,-88.2435,620,40.116119,-88.243357,1,rooftop,104,"S Neil St",,,Champaign,IL,"Champaign County",61820,US,Champaign
41.1537,-81.3579,621,41.153644,-81.357889,1,rooftop,112,"E Main St",,,Kent,OH,"Portage County",44240,US,Portage
47.8263,-122.3046,622,47.826358,-122.304527,1,rooftop,5227,"190th St SW",,,Lynnwood,WA,"Snohomish County",98036,US,"Snohomish County"
30.8366,-83.9788,623,30.83642,-83.978795,1,rooftop,201,"S Broad St",,,Thomasville,GA,"Thomas County",31792,US,Thomas
33.9891,-118.293,624,33.98896,-118.29321,1,rooftop,1100,"W Slauson Ave",,,"Los Angeles",CA,"Los Angeles County",90044,US,"City of Los Angeles"
43.5978,-84.7675,625,43.597176,-84.767577,0.96,nearest_street,749,"US Hwy 27 Bus",,,"Mount Pleasant",MI,"Isabella County",48858,US,"TIGER/Line® dataset from the US Census Bureau"
26.2193,-81.7918,626,26.219586,-81.792157,0.99,rooftop,146,"Ridge Dr",,,Naples,FL,"Collier County",34108,US,Loveland
42.1742,-83.1794,627,42.174319,-83.179494,1,rooftop,18309,"Wendy Ct",,,Riverview,MI,"Wayne County",48193,US,Wayne
43.2137,-77.9392,628,43.213582,-77.939362,1,rooftop,128,"Main St",,,Brockport,NY,"Monroe County",14420,US,"NYS GIS Program Office, State Geographic Information Officer (GIO)"
35.3859,-94.3986,629,35.386112,-94.39822,0.99,rooftop,3109,"Grand Ave",,,"Fort Smith",AR,"Sebastian County",72904,US,"Arkansas Geographic Information Office"
35.2274,-80.8431,630,35.227522,-80.842938,1,rooftop,103,"N Tryon St",,,Charlotte,NC,"Mecklenburg County",28202,US,Mecklenburg
37.4848,-119.9667,631,37.484472,-119.966906,0.99,rooftop,5037,"Stroming Rd",,,Mariposa,CA,"Mariposa County",95338,US,Mariposa
41.7639,-88.29,632,41.763791,-88.290059,1,rooftop,1025,"Front St",,,Aurora,IL,"Kane County",60505,US,"City of Aurora"
41.3556,-72.2316,633,41.355897,-72.232486,0.99,rooftop,18,"Jean Dr",,,"East Lyme",CT,"New London County",06333,US,"City of Lyme"
34.1862,-103.3344,634,34.186252,-103.334459,1,rooftop,509,"E 3rd St",,,Portales,NM,"Roosevelt County",88130,US,"Statewide NM"
41.85,-87.6501,635,41.850474,-87.650968,0.99,rooftop,977,"W Cermak Rd",,,Chicago,IL,"Cook County",60608,US,Cook
43.3665,-124.2178,636,43.366727,-124.217847,1,rooftop,287,"S 6th St",,,"Coos Bay",OR,"Coos County",97420,US,Coos
40.6937,-89.589,637,40.693982,-89.589254,0.99,rooftop,203,"NE Jefferson Ave",,,Peoria,IL,"Peoria County",61602,US,Peoria
42.444,-76.5019,638,42.443993,-76.501717,1,rooftop,513,"N Albany St",,,Ithaca,NY,"Tompkins County",14850,US,Tompkins
41.8504,-72.6434,639,41.850181,-72.6431,0.99,rooftop,275,"Broad St",,,Windsor,CT,"Hartford County",06095,US,"Connecticut Geospatial Information Systems Council"
42.1015,-72.5898,640,42.101854,-72.589524,0.99,rooftop,1350,"Main St",,,Springfield,MA,"Hampden County",01103,US,"Office of Geographic Information (MassGIS), Commonwealth of Massachusetts, MassIT"
46.7324,-117.0002,641,46.732602,-117.000229,1,rooftop,124,"E 3rd St",,,Moscow,ID,"Latah County",83843,US,Latah
39.1434,-77.2013,642,39.143485,-77.201364,1,rooftop,120,"N Frederick Ave",,,Gaithersburg,MD,"Montgomery County",20877,US,Montgomery
42.5918,-72.3099,643,42.591755,-72.309975,1,rooftop,6,"Prospect St",,,Orange,MA,"Franklin County",01364,US,"Office of Geographic Information (MassGIS), Commonwealth of Massachusetts, MassIT"
41.5623,-72.6507,644,41.562373,-72.650386,1,rooftop,438,"Main St",,,Middletown,CT,"Middlesex County",06457,US,"Connecticut Geospatial Information Systems Council"
35.994,-78.8986,645,35.994071,-78.898356,1,rooftop,141,"N Roxboro St",,,Durham,NC,"Durham County",27701,US,Durham
39.9923,-76.6464,646,39.99229,-76.646048,1,rooftop,3800,"Oakleigh Dr",,,York,PA,"York County",17402,US,York
39.8138,-75.1187,647,39.814484,-75.119138,0.99,rooftop,12,"Sycamore Ln",,,Woodbury,NJ,"Gloucester County",08096,US,"NJ Office of Information Technology (NJOIT), Office of Geographic Information Systems (OGIS)"
33.9562,-83.988,648,33.956105,-83.988016,1,rooftop,168,"E Crogan St",,,Lawrenceville,GA,"Gwinnett County",30046,US,Gwinnett
34.0515,-84.0713,649,34.051486,-84.071354,1,rooftop,561,"Buford Hwy",,,"Sugar Hill",GA,"Gwinnett County",30518,US,Gwinnett
36.2946,-76.2511,650,36.29444,-76.251214,1,rooftop,1701,"Providence Rd",,,"Elizabeth City",NC,"Pasquotank County",27909,US,"NC Geographic Information Coordinating Council"
44.5645,-123.262,651,44.564377,-123.261732,1,rooftop,111,"SW 4th St",,,Corvallis,OR,"Benton County",97333,US,"City of Corvallis"
37.6088,-77.3733,652,37.608721,-77.373111,1,rooftop,7382,"Full View Ave",,,Mechanicsville,VA,"Hanover County",23111,US,"Virginia Geographic Information Network (VGIN)"
36.3007,-119.7829,653,36.300864,-119.782782,1,rooftop,153,"C St",,,Lemoore,CA,"Kings County",93245,US,Kings
36.0726,-79.7919,654,36.072714,-79.792001,1,rooftop,214,"W Market St",,,Greensboro,NC,"Guilford County",27401,US,"City of Greensboro"
34.1397,-118.3507,655,34.139617,-118.3502,0.99,rooftop,3900,"Lankershim Blvd",,,"Studio City",CA,"Los Angeles County",91604,US,"Los Angeles"
32.4207,-104.2288,656,32.420685,-104.228975,1,nearest_street,,"US 285",,,Carlsbad,NM,"Eddy County",88220,US,"TIGER/Line® dataset from the US Census Bureau"
27.1976,-80.2528,657,27.1976,-80.25257,1,rooftop,1,"SE Ocean Blvd",,,Stuart,FL,"Martin County",34994,US,Statewide2
32.0486,-111.2853,658,32.04833,-111.28524,1,rooftop,15141,"W Cattle Trl",,,Tucson,AZ,"Pima County",85736,US,Pima
26.4615,-80.0728,659,26.46136,-80.072748,1,rooftop,8,"E Atlantic Ave",,,"Delray Beach",FL,"Palm Beach County",33444,US,"Palm Beach County"
39.8815,-83.093,660,39.881384,-83.09322,1,rooftop,4067,"1st St",,,"Grove City",OH,"Franklin County",43123,US,"City of Columbus"
45.7777,-84.7298,661,45.777654,-84.732901,0.96,rooftop,404,"S Nicolet St",,,"Mackinaw City",MI,"Emmet County",49701,US,Emmet
26.1948,-98.1836,662,26.194632,-98.183661,1,rooftop,100,"E Bus Hwy 83",,,Pharr,TX,"Hidalgo County",78577,US,"Statewide Partial"
41.6362,-70.9342,663,41.636411,-70.933928,0.99,rooftop,239,"Cottage St",,,"New Bedford",MA,"Bristol County",02740,US,"Office of Geographic Information (MassGIS), Commonwealth of Massachusetts, MassIT"
39.8403,-88.9548,664,39.840521,-88.954141,0.99,rooftop,156,"S Water St",,,Decatur,IL,"Macon County",62523,US,Macon
40.5159,-75.5552,665,40.515895,-75.55525,1,rooftop,15,"E Main St",,,Macungie,PA,"Lehigh County",18062,US,Lehigh
33.6848,-117.8266,666,33.684653,-117.827371,0.99,rooftop,48,Marbella,,,Irvine,CA,"Orange County",92614,US,"City of Irvine"
40.714,-73.559,667,40.713978,-73.558847,1,rooftop,407,"E Meadow Ave",,,"East Meadow",NY,"Nassau County",11554,US,"NYS GIS Program Office, State Geographic Information Officer (GIO)"
33.8581,-118.3789,668,33.858178,-118.379211,1,rooftop,827,"Anita St",,,"Redondo Beach",CA,"Los Angeles County",90278,US,"Los Angeles"
40.1783,-122.2361,669,40.178473,-122.236239,1,rooftop,310,"Walnut St",,,"Red Bluff",CA,"Tehama County",96080,US,Tehama
43.1133,-87.9001,670,43.11344,-87.900423,1,rooftop,756,"E Lexington Blvd",,,Milwaukee,WI,"Milwaukee County",53217,US,Milwaukee
38.4221,-77.4083,671,38.421819,-77.408535,0.99,rooftop,2107,"Jefferson Davis Hwy",,,Stafford,VA,"Stafford County",22554,US,"Virginia Geographic Information Network (VGIN)"
34.1416,-118.1502,672,34.14188,-118.149976,0.99,rooftop,37,"E Del Mar Blvd",,,Pasadena,CA,"Los Angeles County",91105,US,"Los Angeles"
40.1934,-85.3864,673,40.193424,-85.386384,1,rooftop,108,"S Walnut St",,,Muncie,IN,"Delaware County",47305,US,Delaware
45.45,-94.4333,674,45.448994,-94.433319,0.98,rooftop,15698,"County Rd 49",,,"Cold Spring",MN,"Stearns County",56320,US,Stearns
26.6735,-81.6631,675,26.673635,-81.662602,0.99,rooftop,728,"Menlo Ct",,,"Lehigh Acres",FL,"Lee County",33972,US,"MapWise (and individual Florida counties)"
37.9592,-121.2978,676,37.959236,-121.298001,1,rooftop,726,"N Van Buren St",,,Stockton,CA,"San Joaquin County",95203,US,"San Joaquin"
25.8582,-80.2776,677,25.858138,-80.277546,1,rooftop,3930,"E 2nd Ct",,,Hialeah,FL,"Miami-Dade County",33013,US,Miami
33.3807,-84.7997,678,33.38044,-84.799683,1,nearest_street,,"US 27 Alternate",,,Newnan,GA,"Coweta County",30263,US,"TIGER/Line® dataset from the US Census Bureau"
42.0411,-87.6901,679,42.041488,-87.689986,0.99,rooftop,1256,"Dryden Pl",,,Evanston,IL,"Cook County",60201,US,"City of Evanston"
41.5095,-90.5788,680,41.50948,-90.578864,0.99,nearest_street,249,"US Hwy 67",,,"Rock Island",IL,"Rock Island County",61201,US,"TIGER/Line® dataset from the US Census Bureau"
30.3674,-89.0928,681,30.367419,-89.092607,1,rooftop,1300,"25th Ave",,,Gulfport,MS,"Harrison County",39501,US,"City of Gulfport"
35.4108,-80.8429,682,35.410708,-80.842687,1,rooftop,101,"S Old Statesville Rd",,,Huntersville,NC,"Mecklenburg County",28078,US,Mecklenburg
41.4731,-87.0611,683,41.473263,-87.061364,1,rooftop,601,"Washington St",,,Valparaiso,IN,"Porter County",46383,US,Porter
25.986,-80.304,684,25.985963,-80.304534,0.99,rooftop,2403,"Centergate Dr",,,Miramar,FL,"Broward County",33025,US,Broward
38.1749,-122.2608,685,38.174848,-122.260841,1,rooftop,100,"Joan Dr",,,"American Canyon",CA,"Napa County",94503,US,Napa
31.4887,-111.542,686,31.488744,-111.542347,0.99,rooftop,41885,"S Sasabe Hy",,,Sasabe,AZ,"Pima County",85633,US,Pima
32.7948,-116.9625,687,32.794705,-116.962651,1,rooftop,121,"W Main St",,,"El Cajon",CA,"San Diego County",92020,US,"San Diego Geographic Information Source - JPA"
41.9426,-87.7378,688,41.942403,-87.737858,1,rooftop,4415,"W Roscoe St",,,Chicago,IL,"Cook County",60641,US,Cook
41.7001,-71.4162,689,41.699813,-71.416179,1,rooftop,181,"Spring Grove Ave",,,Warwick,RI,"Kent County",02889,US,"Statewide RI"
38.589,-121.3027,690,38.588736,-121.302471,0.99,rooftop,10421,"Mills Tower Dr",,,"Rancho Cordova",CA,"Sacramento County",95670,US,Sacramento
42.4501,-73.2454,691,42.449834,-73.245384,1,rooftop,73,"4th St",,,Pittsfield,MA,"Berkshire County",01201,US,"Office of Geographic Information (MassGIS), Commonwealth of Massachusetts, MassIT"
34.0743,-118.3982,692,34.074233,-118.398462,1,rooftop,9348,"Civic Center Dr",,,"Beverly Hills",CA,"Los Angeles County",90210,US,"Los Angeles"
43.025,-108.3801,693,43.024976,-108.381101,0.99,rooftop,720,"E Main St",,,Riverton,WY,"Fremont County",82501,US,Fremont
26.2394,-80.1251,694,26.23941,-80.124926,1,rooftop,820,"NW 2nd Ave",,,"Pompano Beach",FL,"Broward County",33060,US,Statewide2
36.069,-79.4006,695,36.068907,-79.400553,1,rooftop,80,"SW Court Sq",,,Graham,NC,"Alamance County",27253,US,Alamance
42.1945,-71.8356,696,42.194404,-71.835466,1,rooftop,117,"Central St",,,Auburn,MA,"Worcester County",01501,US,"Office of Geographic Information (MassGIS), Commonwealth of Massachusetts, MassIT"
41.0262,-73.6282,697,41.026321,-73.627966,1,rooftop,40,"W Elm St",,,Greenwich,CT,"Fairfield County",06830,US,"Connecticut Geospatial Information Systems Council"
39.1163,-94.6274,698,39.116327,-94.627757,1,rooftop,719,"State Ave",,,"Kansas City",KS,"Wyandotte County",66101,US,"Statewide KS"
33.4473,-84.1469,699,33.447274,-84.147462,0.99,rooftop,15,"Griffin St",,,McDonough,GA,"Henry County",30253,US,Henry
32.6401,-117.0842,700,32.639382,-117.084074,0.99,rooftop,318,"4th Ave",,,"Chula Vista",CA,"San Diego County",91910,US,"San Diego Geographic Information Source - JPA"
42.3672,-72.5185,701,42.367189,-72.518219,1,rooftop,320,"S Pleasant St",,,Amherst,MA,"Hampshire County",01002,US,"Office of Geographic Information (MassGIS), Commonwealth of Massachusetts, MassIT"
37.4138,-79.1423,702,37.413511,-79.142187,0.99,rooftop,1000,"Church St",,,Lynchburg,VA,"Lynchburg City",24504,US,"Virginia Geographic Information Network (VGIN)"
36.0957,-79.4378,703,36.09574,-79.438139,1,rooftop,215,"S Church St",,,Burlington,NC,"Alamance County",27215,US,Alamance
46.4425,-95.1361,704,46.44271,-95.136229,1,rooftop,101,"Jefferson St N",,,Wadena,MN,"Wadena County",56482,US,Wadena
40.7183,-122.4196,705,40.719363,-122.420044,0.98,rooftop,16351,"Shasta Dam Access Rd",,,"Shasta Lake",CA,"Shasta County",96019,US,Shasta
37.3868,-120.7235,706,37.386788,-120.723571,1,rooftop,334,"Main St",,,Livingston,CA,"Merced County",95334,US,Merced
38.8802,-77.1063,707,38.879913,-77.106064,0.99,rooftop,3902,"Wilson Blvd",,,Arlington,VA,"Arlington County",22203,US,Arlington
42.4182,-71.1055,708,42.418193,-71.105808,1,rooftop,85,"George P Hassett Dr",,,Medford,MA,"Middlesex County",02155,US,"Office of Geographic Information (MassGIS), Commonwealth of Massachusetts, MassIT"
33.5017,-117.6626,709,33.501659,-117.662451,1,rooftop,31760,"Camino Capistrano",,,"San Juan Capistrano",CA,"Orange County",92675,US,"City of San Juan Capistrano"
33.5834,-86.7727,710,33.583459,-86.772991,1,rooftop,1514,"Pinson St",,,Birmingham,AL,"Jefferson County",35217,US,Jefferson
38.8965,-121.0774,711,38.896153,-121.077638,0.99,rooftop,149,"Court St",,,Auburn,CA,"Placer County",95603,US,Placer
39.4562,-77.9639,712,39.456475,-77.963709,0.99,rooftop,148,"S Queen St",,,Martinsburg,WV,"Berkeley County",25401,US,"Statewide WV"
42.563,-114.4609,713,42.563167,-114.460279,0.96,nearest_street,1198,"US Hwy 93",,,"Twin Falls",ID,"Twin Falls County",83301,US,"TIGER/Line® dataset from the US Census Bureau"
42.095,-87.9808,714,42.095148,-87.980772,1,rooftop,1030,"N Arlington Heights Rd",,,"Arlington Heights",IL,"Cook County",60004,US,Cook
47.4941,-122.63,715,47.493792,-122.630197,0.99,rooftop,1652,"Cedar Rd",,,"Port Orchard",WA,"Kitsap County",98367,US,Kitsap
32.7218,-84.0132,716,32.722071,-84.013094,1,rooftop,240,"N Dugger Ave",,,Roberta,GA,"Crawford County",31078,US,"Crawford County"
37.6869,-97.3309,717,37.686981,-97.330715,1,rooftop,128,"N Santa Fe Ave",,,Wichita,KS,"Sedgwick County",67202,US,"Statewide KS"
36.8468,-76.2852,718,36.846331,-76.285482,0.99,rooftop,160,"St Pauls Blvd",,,Norfolk,VA,"Norfolk City",23510,US,"Virginia Geographic Information Network (VGIN)"
26.705,-80.0373,719,26.705138,-80.037515,1,rooftop,222,"Royal Palm Way",,,"Palm Beach",FL,"Palm Beach County",33480,US,"Palm Beach County"
38.0193,-122.1353,720,38.019117,-122.135424,1,rooftop,500,"Court St",,,Martinez,CA,"Contra Costa County",94553,US,"Contra Costa"
37.4851,-122.2361,721,37.484167,-122.236443,0.98,rooftop,480,"James Ave",,,"Redwood City",CA,"San Mateo County",94062,US,"San Mateo"
33.7699,-118.2031,722,33.769726,-118.202258,0.99,rooftop,821,"W Broadway",,,"Long Beach",CA,"Los Angeles County",90802,US,"Los Angeles"
33.8306,-116.5471,723,33.830692,-116.547357,1,rooftop,515,"N Palm Canyon Dr",,,"Palm Springs",CA,"Riverside County",92262,US,Riverside
34.1425,-118.255,724,34.142284,-118.25538,0.99,rooftop,104,"W Colorado St",,,Glendale,CA,"Los Angeles County",91204,US,"Los Angeles"
29.0225,-81.2864,725,29.023748,-81.286415,0.98,rooftop,308,"S Virginia Ave",,,Deland,FL,"Volusia County",32724,US,Volusia
44.6365,-123.1059,726,44.636374,-123.106139,1,rooftop,202,"2nd Ave SW",,,Albany,OR,"Linn County",97321,US,"City of Albany"
35.1036,-98.6036,727,35.103577,-98.603319,0.97,nearest_street,16,"W 2nd St",,,Carnegie,OK,"Caddo County",73015,US,"TIGER/Line® dataset from the US Census Bureau"
36.8354,-76.2983,728,36.835163,-76.298302,1,rooftop,500,"Crawford St",,,Portsmouth,VA,"Portsmouth City",23704,US,"Virginia Geographic Information Network (VGIN)"
48.2325,-101.2962,729,48.232701,-101.296406,1,rooftop,312,"Broadway S",,,Minot,ND,"Ward County",58701,US,Ward
34.6866,-118.1536,730,34.686811,-118.154719,0.98,rooftop,1304,"W Ave J3",,,Lancaster,CA,"Los Angeles County",93534,US,"Los Angeles"
33.3487,-87.0142,731,33.348392,-87.013897,0.99,rooftop,1701,"Powder Plant Rd",,,"Mc Calla",AL,"Jefferson County",35111,US,Jefferson
39.9626,-76.7277,732,39.962796,-76.727387,0.99,rooftop,1,"E Market St",,,York,PA,"York County",17401,US,York
33.1959,-117.3795,733,33.195829,-117.37921,1,rooftop,501,"Mission Ave",,,Oceanside,CA,"San Diego County",92054,US,Sandoval
40.7358,-74.1728,734,40.735675,-74.172968,1,rooftop,154,"Market St",,,Newark,NJ,"Essex County",07102,US,"NJ Office of Information Technology (NJOIT), Office of Geographic Information Systems (OGIS)"
35.684,-82.0093,735,35.684152,-82.009311,1,rooftop,7,"N Main St",,,Marion,NC,"McDowell County",28752,US,Mcdowell
32.8546,-79.9748,736,32.854478,-79.974738,0.98,nearest_street,3337,"US Hwy 78",,,"North Charleston",SC,"Charleston County",29405,US,"TIGER/Line® dataset from the US Census Bureau"
42.0189,-87.8028,737,42.018759,-87.802517,1,rooftop,7563,"Waukegan Rd",,,Niles,IL,"Cook County",60714,US,Cook
42.4806,-83.4755,738,42.480483,-83.475214,1,rooftop,43341,"Grand River Ave",,,Novi,MI,"Oakland County",48375,US,Semcog
40.2806,-124.3514,739,40.290076,-124.348347,0.84,nearest_street,3898,"Lighthouse Rd",,,Petrolia,CA,"Humboldt County",95558,US,"TIGER/Line® dataset from the US Census Bureau"
33.4934,-117.1483,740,33.493467,-117.148329,1,rooftop,41971,"Main St",,,Temecula,CA,"Riverside County",92590,US,"City of Temecula"
32.9628,-117.0359,741,32.962582,-117.035885,1,rooftop,13653,"Midland Rd",,,Poway,CA,"San Diego County",92064,US,Sandoval
38.8455,-77.316,742,38.845481,-77.315876,1,rooftop,10710,"Page Ave",,,Fairfax,VA,"Fairfax County",22030,US,Fairfax
